OBJECTID,CDSCode,Status,Charter,Ed_Type,Level,Pb_Prv_BIE,School,District,County,Street,City,State,Zip,Lat,Long,Stacked,Stack_cnt,Source,CDS_uniq,GradesOffered,GradesServed
1,1.97687E+13,Active,No,Traditional,Elementary,Public,138th Street,Wiseburn Unified,Los Angeles,5403 West 138th Street,Hawthorne,CA,90250-6431,33.908583,-118.376468,Yes,3,Los Angeles CO Parcels,1.97687E+13,5-Mar,5-Mar
2,1.97687E+13,Active,Yes,Traditional,High School,Public,Da Vinci Science,Wiseburn Unified,Los Angeles,201 N. Douglas Street,El Segundo,CA,90245-4637,33.918876,-118.384333,Yes,2,Los Angeles CO Parcels 2020,1.97687E+13,12-Sep,12-Sep
3,1.97687E+13,Active,Yes,Traditional,High School,Public,Da Vinci Design,Wiseburn Unified,Los Angeles,12501 Isis Avenue,Hawthorne,CA,90250-4149,33.919227,-118.375501,Yes,2,Los Angeles CO Parcels 2020,1.97687E+13,12-Sep,12-Sep
4,1.97687E+13,Active,Yes,Traditional,Elementary - Intermediate/Middle/Junior High Combination,Public,Da Vinci Connect,Wiseburn Unified,Los Angeles,12501 Isis Avenue,Hawthorne,CA,90250-6462,33.919231,-118.375507,Yes,2,Los Angeles CO Parcels 2020,1.97687E+13,K-12,K-8
5,1.97687E+13,Active,No,Traditional,Elementary,Public,Juan De Anza Elementary,Wiseburn Unified,Los Angeles,12110 Hindry Avenue,Hawthorne,CA,90250-3403,33.922632,-118.371115,No,1,Los Angeles CO Parcels,1.97687E+13,K-5,K-5
6,1.97687E+13,Active,No,Traditional,Intermediate/Middle/Junior High,Public,Richard Henry Dana Middle,Wiseburn Unified,Los Angeles,5504 West 135th Street,Hawthorne,CA,90250-6462,33.908583,-118.376468,Yes,3,Los Angeles CO Parcels,1.97687E+13,8-Jun,8-Jun
7,1.97687E+13,Active,No,Traditional,Elementary,Public,Juan Cabrillo Elementary,Wiseburn Unified,Los Angeles,5309 West 135th Street,Hawthorne,CA,90250-4948,33.910364,-118.372756,No,1,Los Angeles CO Parcels,1.97687E+13,K-2,K-2
8,1.96473E+13,Active,Yes,Traditional,Intermediate/Middle/Junior High,Public,PREPA TEC - Los Angeles,Los Angeles Unified,Los Angeles,2665 Clarendon Avenue,Huntington Park,CA,90255-4138,33.983954,-118.223502,No,1,Los Angeles CO Parcels 2009,1.96473E+13,8-Jun,8-Jun
9,3.77685E+13,Active,No,Traditional,Elementary,Public,Bonsall Elementary,Bonsall Unified,San Diego,31555 Old River Road,Bonsall,CA,92003-5112,33.286702,-117.219297,No,1,San Diego CO Parcels,3.77685E+13,K-5,K-5
10,3.77685E+13,Active,No,Traditional,Elementary,Public,Bonsall West Elementary,Bonsall Unified,San Diego,5050 El Mirlo Drive,Oceanside,CA,92057-2704,33.264164,-117.292328,No,1,San Diego CO Parcels,3.77685E+13,K-6,K-6
11,3.77685E+13,Active,No,Traditional,Intermediate/Middle/Junior High,Public,Norman L. Sullivan Middle,Bonsall Unified,San Diego,7350 West Lilac Road,Bonsall,CA,92003-5112,33.297312,-117.175131,Yes,2,Norman L. Sullivan Middle,3.77685E+13,8-Jun,8-Jun
12,3.66765E+13,Active,No,Traditional,Intermediate/Middle/Junior High,Public,Cucamonga Middle,Central Elementary,San Bernardino,7611 Hellman Avenue,Rancho Cucamonga,CA,91730-2204,34.115973,-117.600902,No,1,San Bernardino CO Parcels,3.66765E+13,8-Jun,8-Jun
13,2.97688E+13,Active,No,Traditional,Elementary - Intermediate/Middle/Junior High Combination,Public,Ready Springs Elementary,Penn Valley Union Elementary,Nevada,10862 Spenceville Road,Penn Valley,CA,95946-9625,39.195109,-121.181345,Yes,2,Nevada CO Parcels,2.97688E+13,K-8,K-8
14,2.97688E+13,Active,Yes,Traditional,Elementary - High Combination,Public,Vantage Point Charter,Penn Valley Union Elementary,Nevada,10862 Spenceville Road,Penn Valley,CA,95946-9625,39.195109,-121.181345,Yes,2,Nevada CO Parcels,2.97688E+13,K-12,12-Feb
15,2.97688E+13,Active,No,Traditional,Elementary,Public,Williams Ranch Elementary,Penn Valley Union Elementary,Nevada,14804 Pleasant Valley Road,Penn Valley,CA,95946-9722,39.255862,-121.199427,No,1,Nevada CO Parcels,2.97688E+13,K-5,K-5
16,5.07118E+13,Active,Yes,Traditional,Intermediate/Middle/Junior High - High Combination,Public,Aspire Vanguard College Preparatory Academy,Modesto City High,Stanislaus,819 Sunset Avenue,Modesto,CA,95351-3756,37.640782,-120.897819,Yes,3,Stanislaus CO Parcels 2009,5.07118E+13,12-Jun,12-Jun
17,4.87053E+13,Active,Yes,Traditional,Elementary - Intermediate/Middle/Junior High Combination,Public,Dixon Montessori Charter,Dixon Unified,Solano,355 North Almond Street,Dixon,CA,95620-2702,38.448414,-121.834108,Yes,2,Solano CO Parcels 2010; Pilot project shp,4.87053E+13,K-8,K-8
18,4.97085E+13,Active,Yes,Traditional,Elementary,Public,River Montessori Elementary Charter,Old Adobe Union,Sonoma,3880 Cypress Drive Suite B,Petaluma,CA,94954-5613,38.226149,-122.586651,No,1,Sonoma CO Parcels 2012; Internet research,4.97085E+13,K-6,K-6
19,2.11022E+13,Active,No,County Community School,Intermediate/Middle/Junior High - High Combination,Public,Marin's Community,Marin County Office of Education,Marin,1111 Las Gallinas Avenue,San Rafael,CA,94903-1843,37.99897,-122.524691,No,1,Marin CO Parcels 2010,2.11022E+13,12-Jul,12-Jul
20,2.11022E+13,Active,Yes,County Community School,Intermediate/Middle/Junior High - High Combination,Public,Phoenix Academy,Marin County Office of Education,Marin,1111 Las Gallinas Avenue,San Rafael,CA,94903-1843,37.998921,-122.523811,No,1,Marin CO Parcels 2010,2.11022E+13,12-Jul,12-Aug
21,2.11022E+13,Active,No,Special Education School,Elementary - High Combination,Public,Marin County Special Education,Marin County Office of Education,Marin,1111 Las Gallinas Avenue,San Rafael,CA,94903-1843,38.014004,-122.550689,Yes,2,Marin CO Parcels 2010,2.11022E+13,P-12,K-12
22,2.1653E+13,Active,No,Traditional,Elementary - Intermediate/Middle/Junior High Combination,Public,Bolinas-Stinson Elementary,Bolinas-Stinson Union,Marin,125 Olema-Bolinas Road,Bolinas,CA,94924-9747,37.917282,-122.693398,No,1,Marin CO Parcels 2010,2.1653E+13,K-8,K-8
23,2.16532E+13,Active,No,Traditional,Elementary,Public,Lucas Valley Elementary,Miller Creek Elementary,Marin,1175 Idylberry Drive,San Rafael,CA,94903-1131,38.029098,-122.574319,No,1,Marin CO Parcels 2010,2.16532E+13,K-5,K-5
24,2.16532E+13,Active,No,Traditional,Elementary,Public,Mary E. Silveira Elementary,Miller Creek Elementary,Marin,375 Blackstone Drive,San Rafael,CA,94903-1401,38.037334,-122.543643,No,1,Marin CO Parcels 2010,2.16532E+13,K-5,K-5
25,2.16532E+13,Active,No,Traditional,Intermediate/Middle/Junior High,Public,Miller Creek Middle,Miller Creek Elementary,Marin,2255 Las Gallinas Avenue,San Rafael,CA,94903-1699,38.030042,-122.548096,No,1,Marin CO Parcels 2010,2.16532E+13,8-Jun,8-Jun
26,2.16532E+13,Active,No,Traditional,Elementary,Public,Vallecito Elementary,Miller Creek Elementary,Marin,50 Nova Albion Way,San Rafael,CA,94903-3556,38.006377,-122.553185,No,1,Marin CO Parcels 2010,2.16532E+13,K-5,K-5
27,2.16533E+13,Active,No,Traditional,Elementary,Public,Anthony G. Bacich Elementary,Kentfield Elementary,Marin,699 Sir Francis Drake Boulevard,Kentfield,CA,94904-1639,37.95208,-122.539193,No,1,Marin CO Parcels 2010,2.16533E+13,K-4,K-4
28,2.16533E+13,Active,No,Traditional,Intermediate/Middle/Junior High,Public,Adaline E. Kent Middle,Kentfield Elementary,Marin,800 College Avenue,Kentfield,CA,94904-2549,37.953078,-122.547398,No,1,Marin CO Parcels 2010,2.16533E+13,8-May,8-May
29,2.16534E+13,Active,No,Traditional,Elementary,Public,Laguna Elementary,Laguna Joint Elementary,Marin,2657 Chileno Valley Road,Petaluma,CA,94952-9428,38.19946,-122.715552,No,1,Marin CO Parcels 2010,2.16534E+13,K-6,5-Jan
30,2.16536E+13,Active,No,Traditional,Elementary - Intermediate/Middle/Junior High Combination,Public,Lagunitas Elementary,Lagunitas Elementary,Marin,One Lagunitas School Road,San Geronimo,CA,94963-0308,38.017267,-122.673911,Yes,2,Marin CO Parcels 2010,2.16536E+13,K-8,K-8
31,2.16536E+13,Active,No,Traditional,Elementary,Public,San Geronimo Valley Elementary,Lagunitas Elementary,Marin,One Lagunitas School Road,San Geronimo,CA,94963-0308,38.017267,-122.673911,Yes,2,Marin CO Parcels 2010,2.16536E+13,K-6,K-6
32,2.16537E+13,Active,No,Traditional,Intermediate/Middle/Junior High,Public,Hall Middle,Larkspur-Corte Madera,Marin,200 Doherty Drive,Larkspur,CA,94939-1532,37.939277,-122.531678,No,1,Marin CO Parcels 2010,2.16537E+13,8-Jun,8-Jun
33,2.16537E+13,Active,No,Traditional,Elementary,Public,Neil Cummins Elementary,Larkspur-Corte Madera,Marin,58 Mohawk Avenue,Corte Madera,CA,94925-1033,37.927365,-122.52428,No,1,Marin CO Parcels 2010,2.16537E+13,K-5,K-5
34,2.16538E+13,Active,No,Traditional,Elementary,Public,Lincoln Union Elementary,Lincoln Elementary,Marin,1300 Hicks Valley Road,Petaluma,CA,94952-9407,38.151921,-122.710583,No,1,Marin CO Parcels 2010,2.16538E+13,K-6,K-5
35,2.16539E+13,Active,No,Traditional,Elementary,Public,Edna Maguire Elementary,Mill Valley Elementary,Marin,80 Lomita Drive,Mill Valley,CA,94941-1464,37.908001,-122.523245,No,1,Marin CO Parcels 2010,2.16539E+13,K-5,K-5
36,2.16539E+13,Active,No,Traditional,Elementary,Public,Old Mill Elementary,Mill Valley Elementary,Marin,352 Throckmorton Avenue,Mill Valley,CA,94941-2640,37.906121,-122.552935,No,1,Marin CO Parcels 2010,2.16539E+13,K-5,K-5
37,2.16539E+13,Active,No,Traditional,Elementary,Public,Park Elementary,Mill Valley Elementary,Marin,360 East Blithedale Avenue,Mill Valley,CA,94941-2140,37.903408,-122.537487,No,1,Marin CO Parcels 2010,2.16539E+13,P-5,K-5
38,2.16539E+13,Active,No,Traditional,Elementary,Public,Strawberry Point Elementary,Mill Valley Elementary,Marin,117 East Strawberry Drive,Mill Valley,CA,94941-2576,37.896575,-122.503984,No,1,Marin CO Parcels 2010,2.16539E+13,K-5,K-5
39,2.16539E+13,Active,No,Traditional,Elementary,Public,Tamalpais Valley Elementary,Mill Valley Elementary,Marin,350 Bell Lane,Mill Valley,CA,94941-4038,37.874082,-122.527564,No,1,Marin CO Parcels 2010,2.16539E+13,K-5,K-5
40,2.16539E+13,Active,No,Traditional,Intermediate/Middle/Junior High,Public,Mill Valley Middle,Mill Valley Elementary,Marin,425 Sycamore Avenue,Mill Valley,CA,94941-2231,37.898045,-122.528024,No,1,Marin CO Parcels 2010,2.16539E+13,8-Jun,8-Jun
41,2.16541E+13,Active,No,Traditional,Elementary - Intermediate/Middle/Junior High Combination,Public,Nicasio,Nicasio,Marin,5555 Nicasio Valley Road,Nicasio,CA,94946,38.069154,-122.704384,No,1,Marin CO Parcels 2010,2.16541E+13,K-8,K-8
42,2.16542E+13,Active,No,Traditional,Intermediate/Middle/Junior High,Public,San Jose Intermediate,Novato Unified,Marin,1000 Sunset Parkway,Novato,CA,94949-4999,38.076498,-122.57031,No,1,Marin CO Parcels 2010,2.16542E+13,8-Jun,8-Jun
43,2.16542E+13,Active,No,Alternative School of Choice,Elementary - High Combination,Public,Nova Education Center,Novato Unified,Marin,720 Diablo Boulevard,Novato,CA,94947-4004,38.097794,-122.576175,Yes,2,Marin CO Parcels 2010,2.16542E+13,K-12,12-Apr
44,2.16542E+13,Active,No,Continuation School,High School,Public,Marin Oaks High,Novato Unified,Marin,720 Diablo Avenue,Novato,CA,94947-4004,38.097794,-122.576175,Yes,2,Marin CO Parcels 2010,2.16542E+13,12-Sep,12-Oct
45,2.16542E+13,Active,No,Traditional,High School,Public,Novato High,Novato Unified,Marin,625 Arthur Street,Novato,CA,94947-4499,38.08911,-122.573047,No,1,Marin CO Parcels 2010,2.16542E+13,12-Sep,12-Sep
46,2.16542E+13,Active,No,Traditional,High School,Public,San Marin High,Novato Unified,Marin,15 San Marin Drive,Novato,CA,94945-1117,38.120427,-122.610811,No,1,Marin CO Parcels 2010,2.16542E+13,12-Sep,12-Sep
47,2.16542E+13,Active,No,Traditional,Elementary - Intermediate/Middle/Junior High Combination,Public,Hamilton Meadow Park,Novato Unified,Marin,5530 Nave Drive,Novato,CA,94949-6435,38.054018,-122.529251,No,1,Marin CO Parcels 2010,2.16542E+13,K-8,K-8
48,2.16542E+13,Active,No,Traditional,Elementary,Public,Loma Verde Elementary,Novato Unified,Marin,399 Alameda de La Loma,Novato,CA,94949-5935,38.064577,-122.547265,No,1,Marin CO Parcels 2010,2.16542E+13,K-5,K-5
49,2.16542E+13,Active,No,Traditional,Elementary,Public,Lu Sutton Elementary,Novato Unified,Marin,1800 Center Road,Novato,CA,94947-2975,38.106208,-122.585464,No,1,Marin CO Parcels 2010,2.16542E+13,K-5,K-5
50,2.16542E+13,Active,No,Traditional,Elementary,Public,Lynwood Elementary,Novato Unified,Marin,1320 Lynwood Drive,Novato,CA,94947-4629,38.087081,-122.562342,No,1,Marin CO Parcels 2010,2.16542E+13,K-5,K-5
51,2.16542E+13,Active,No,Traditional,Elementary,Public,Olive Elementary,Novato Unified,Marin,629 Plum Street,Novato,CA,94945-2578,38.109254,-122.556291,No,1,Marin CO Parcels 2010,2.16542E+13,K-5,K-5
52,2.16542E+13,Active,No,Traditional,Elementary,Public,Pleasant Valley Elementary,Novato Unified,Marin,755 Sutro Avenue,Novato,CA,94947-1937,38.108373,-122.614293,No,1,Marin CO Parcels 2010,2.16542E+13,K-5,K-5
53,2.16542E+13,Active,No,Traditional,Elementary,Public,Rancho Elementary,Novato Unified,Marin,1430 Johnson Street,Novato,CA,94947-4459,38.095048,-122.571154,No,1,Marin CO Parcels 2010,2.16542E+13,K-5,K-5
54,2.16542E+13,Active,No,Traditional,Elementary,Public,San Ramon Elementary,Novato Unified,Marin,45 San Ramon Way,Novato,CA,94945-1616,38.119343,-122.60535,No,1,Marin CO Parcels 2010,2.16542E+13,K-5,K-5
55,2.16542E+13,Active,No,Traditional,Intermediate/Middle/Junior High,Public,Sinaloa Middle,Novato Unified,Marin,2045 Vineyard Road,Novato,CA,94947-3810,38.104485,-122.597995,No,1,Marin CO Parcels 2010,2.16542E+13,8-Jun,8-Jun
56,2.16542E+13,Active,Yes,Traditional,Elementary - Intermediate/Middle/Junior High Combination,Public,Novato Charter,Novato Unified,Marin,940 C Street,Novato,CA,94949-5060,38.056047,-122.524847,No,1,Marin CO Parcels 2010,2.16542E+13,K-8,K-8
57,2.16543E+13,Active,No,Traditional,Elementary,Public,Bel Aire Elementary,Reed Union Elementary,Marin,277 Karen Way,Tiburon,CA,94920-2044,37.903175,-122.496561,No,1,Marin CO Parcels 2010,2.16543E+13,5-Mar,5-Mar
58,2.16543E+13,Active,No,Traditional,Intermediate/Middle/Junior High,Public,Del Mar Middle,Reed Union Elementary,Marin,105 Avenida Miraflores,Tiburon,CA,94920-1414,37.893599,-122.482058,No,1,Marin CO Parcels 2010,2.16543E+13,8-Jun,8-Jun
59,2.16543E+13,Active,No,Traditional,Elementary,Public,Reed Elementary,Reed Union Elementary,Marin,1199 Tiburon Boulevard,Tiburon,CA,94920-1550,37.881825,-122.46458,No,1,Marin CO Parcels 2010,2.16543E+13,K-2,K-2
60,2.16543E+13,Active,No,Traditional,Elementary - Intermediate/Middle/Junior High Combination,Public,Ross Elementary,Ross Elementary,Marin,9 Lagunitas Road,Ross,CA,94957-9661,37.96116,-122.557167,No,1,Marin CO Parcels 2010,2.16543E+13,K-8,K-8
61,2.16546E+13,Active,No,Traditional,Elementary,Public,Bahia Vista Elementary,San Rafael City Elementary,Marin,125 Bahia Way,San Rafael,CA,94901-4502,37.965897,-122.497731,No,1,Marin CO Parcels 2010,2.16546E+13,K-5,K-5
62,2.16546E+13,Active,No,Traditional,Elementary,Public,Coleman Elementary,San Rafael City Elementary,Marin,800 Belle Avenue,San Rafael,CA,94901-2227,37.978039,-122.519079,No,1,Marin CO Parcels 2010,2.16546E+13,K-5,K-5
63,2.16546E+13,Active,No,Traditional,Elementary - Intermediate/Middle/Junior High Combination,Public,Venetia Valley K-8,San Rafael City Elementary,Marin,177 North San Pedro Road,San Rafael,CA,94903-4200,38.001216,-122.524957,No,1,Marin CO Parcels 2010,2.16546E+13,K-8,K-8
64,2.16546E+13,Active,No,Traditional,Elementary,Public,Glenwood Elementary,San Rafael City Elementary,Marin,25 Castlewood Drive,San Rafael,CA,94901-2524,37.981944,-122.478161,No,1,Marin CO Parcels 2010,2.16546E+13,K-5,K-5
65,2.16546E+13,Active,No,Traditional,Elementary,Public,Laurel Dell Elementary,San Rafael City Elementary,Marin,225 Woodland Avenue,San Rafael,CA,94901-6017,37.963828,-122.525959,No,1,Marin CO Parcels 2010,2.16546E+13,K-5,K-5
66,2.16546E+13,Active,No,Traditional,Elementary,Public,San Pedro Elementary,San Rafael City Elementary,Marin,498 Point San Pedro Road,San Rafael,CA,94901-2457,37.974101,-122.489449,No,1,Marin CO Parcels 2010,2.16546E+13,K-5,K-5
67,2.16546E+13,Active,No,Traditional,Elementary,Public,Sun Valley Elementary,San Rafael City Elementary,Marin,75 Happy Lane,San Rafael,CA,94901-1020,37.985223,-122.551375,No,1,Marin CO Parcels 2010,2.16546E+13,K-5,K-5
68,2.16546E+13,Active,No,Traditional,Intermediate/Middle/Junior High,Public,James B. Davidson Middle,San Rafael City Elementary,Marin,280 Woodland Avenue,San Rafael,CA,94901-5046,37.965729,-122.524976,No,1,Marin CO Parcels 2010,2.16546E+13,8-Jun,8-Jun
69,2.16547E+13,Active,No,Continuation School,High School,Public,Madrone High Continuation,San Rafael City High,Marin,185 Mission Avenue,San Rafael,CA,94901-5632,37.970209,-122.512511,Yes,2,Marin CO Parcels 2010,2.16547E+13,12-Sep,12-Nov
70,2.16547E+13,Active,No,Traditional,High School,Public,San Rafael High,San Rafael City High,Marin,150 Third Street,San Rafael,CA,94901-5632,37.970209,-122.512511,Yes,2,Marin CO Parcels 2010,2.16547E+13,12-Sep,12-Sep
71,2.16547E+13,Active,No,Traditional,High School,Public,Terra Linda High,San Rafael City High,Marin,320 Nova Albion Way,San Rafael,CA,94903-3523,37.998428,-122.552058,No,1,Marin CO Parcels 2010,2.16547E+13,12-Sep,12-Sep
72,2.16547E+13,Active,No,Traditional,Elementary - Intermediate/Middle/Junior High Combination,Public,Bayside Martin Luther King Jr. Academy,Sausalito Marin City,Marin,200 Phillips Drive,Sausalito,CA,94965-1194,37.871884,-122.513018,No,1,Marin CO Parcels 2010,2.16547E+13,K-8,K-8
73,2.16547E+13,Active,Yes,Traditional,Elementary - Intermediate/Middle/Junior High Combination,Public,Willow Creek Academy Charter,Sausalito Marin City,Marin,636 Nevada Street,Sausalito,CA,94965-1654,37.863532,-122.502896,No,1,Marin CO Parcels 2010,2.16547E+13,K-8,K-8
74,2.16548E+13,Active,No,Traditional,High School,Public,Sir Francis Drake High,Tamalpais Union High,Marin,1327 Sir Francis Drake Boulevard,San Anselmo,CA,94960-1800,37.983162,-122.573017,No,1,Marin CO Parcels 2010,2.16548E+13,12-Sep,12-Sep
75,2.16548E+13,Active,No,Traditional,High School,Public,Tamalpais High,Tamalpais Union High,Marin,700 Miller Avenue,Mill Valley,CA,94941-2926,37.891612,-122.529903,No,1,Marin CO Parcels 2010,2.16548E+13,12-Sep,12-Sep
76,2.17336E+13,Active,No,Traditional,High School,Public,Tomales High,Shoreline Unified,Marin,3850 Irvin Lane,Tomales,CA,94971-0198,38.246991,-122.895266,No,1,Marin CO Parcels 2010,2.17336E+13,12-Sep,12-Sep
77,2.17336E+13,Active,No,Traditional,Elementary,Public,Inverness Elementary,Shoreline Unified,Marin,BayView and Mesa,Inverness,CA,94937,38.098356,-122.8556,No,1,Marin CO Parcels 2010,2.17336E+13,K-1,K-1
78,2.17336E+13,Active,No,Traditional,Elementary - Intermediate/Middle/Junior High Combination,Public,West Marin Elementary,Shoreline Unified,Marin,11550 Highway 1,Point Reyes Station,CA,94956-0300,38.070141,-122.803134,No,1,Marin CO Parcels 2010,2.17336E+13,8-Feb,8-Feb
79,2.17336E+13,Active,No,Traditional,Elementary,Public,Bodega Bay Elementary,Shoreline Unified,Sonoma,1200 Canon Street,Bodega Bay,CA,94923,38.334391,-123.044552,No,1,Sonoma CO Parcels 2012; Internet research,2.17336E+13,P-5,K-5
80,2.17466E+13,Active,No,Regional Occupational Center/Program,High School,Public,Marin County ROP,Marin County ROP,Marin,1111 Las Gallinas Avenue,San Rafael,CA,94913-1843,38.014004,-122.550689,Yes,2,Marin CO Parcels 2010,2.17466E+13,12-Sep,No Data
81,2.175E+13,Active,No,Traditional,Elementary,Public,Hidden Valley Elementary,Ross Valley Elementary,Marin,46 Green Valley Court,San Anselmo,CA,94960-1112,38.005747,-122.573752,No,1,Marin CO Parcels 2010,2.175E+13,K-5,K-5
82,2.175E+13,Active,No,Traditional,Elementary,Public,Manor Elementary,Ross Valley Elementary,Marin,150 Oak Manor Drive,Fairfax,CA,94930-1013,37.996482,-122.594307,No,1,Marin CO Parcels 2010,2.175E+13,K-5,K-5
83,2.175E+13,Active,No,Traditional,Intermediate/Middle/Junior High,Public,White Hill Middle,Ross Valley Elementary,Marin,101 Glen Drive,Fairfax,CA,94930-1338,38.002929,-122.606233,No,1,Marin CO Parcels 2010,2.175E+13,8-Jun,8-Jun
84,2.175E+13,Active,No,Traditional,Elementary,Public,Brookside Elementary,Ross Valley Elementary,Marin,116 Butterfield Road,San Anselmo,CA,94960-1562,37.990849,-122.575139,No,1,Marin CO Parcels 2010,2.175E+13,K-5,K-5
85,2.175E+13,Active,No,Traditional,Elementary,Public,Wade Thomas Elementary,Ross Valley Elementary,Marin,150 Ross Avenue,San Anselmo,CA,94960-2941,37.971374,-122.567409,No,1,Marin CO Parcels 2010,2.175E+13,K-5,K-5
86,2.11022E+13,Active,No,Juvenile Court School,Intermediate/Middle/Junior High - High Combination,Public,Marin County Juvenile Court,Marin County Office of Education,Marin,16 Jeannette Prandi Way,San Rafael,CA,94903-1843,38.174189,-122.825191,No,1,Marin CO Parcels 2010,2.11022E+13,12-Jul,12-Aug
87,1.96473E+13,Active,Yes,Traditional,Elementary,Public,Wilbur Charter For Enriched Academics,Los Angeles Unified,Los Angeles,5213 Crebs Avenue,Tarzana,CA,91356-4010,34.164432,-118.544704,No,1,Los Angeles CO Land Type 2011,1.96473E+13,K-5,K-5
88,1.96473E+13,Active,No,Traditional,Intermediate/Middle/Junior High,Public,"Washington Irving Middle School Math, Music and Engineering Magnet",Los Angeles Unified,Los Angeles,3010 Estara Avenue,Los Angeles,CA,90065-2205,34.116477,-118.241444,Yes,2,Los Angeles CO Land Type 2011,1.96473E+13,8-Jun,8-Jun
89,1.96473E+13,Active,Yes,Traditional,Elementary,Public,Serrania Avenue Charter For Enriched Studies,Los Angeles Unified,Los Angeles,5014 Serrania Avenue,Woodland Hills,CA,91364-3303,34.160522,-118.587346,No,1,Los Angeles CO Land Type 2011,1.96473E+13,K-5,K-5
90,1.96473E+13,Active,Yes,Traditional,Elementary,Public,Fenton Avenue Charter,Los Angeles Unified,Los Angeles,11828 Gain Street,Lake View Terrace,CA,91342-7132,34.279929,-118.390395,Yes,2,Los Angeles CO Land Type 2011,1.96473E+13,5-Mar,5-Mar
91,1.96473E+13,Active,Yes,Traditional,Elementary,Public,Topanga Elementary Charter,Los Angeles Unified,Los Angeles,22075 Topanga School Road,Topanga,CA,90290-3835,34.092812,-118.60484,No,1,Los Angeles CO Land Type 2011,1.96473E+13,K-5,K-5
92,1.96473E+13,Active,No,Traditional,Intermediate/Middle/Junior High,Public,Palms Middle,Los Angeles Unified,Los Angeles,10860 Woodbine Street,Los Angeles,CA,90034-5416,34.021443,-118.414701,No,1,Los Angeles CO Land Type 2011,1.96473E+13,8-Jun,8-Jun
93,1.96473E+13,Active,No,Traditional,Elementary,Public,Fishburn Avenue Elementary,Los Angeles Unified,Los Angeles,5701 Fishburn Avenue,Maywood,CA,90270-2819,33.989165,-118.190907,No,1,Los Angeles CO Land Type 2011,1.96473E+13,K-5,K-5
94,1.96473E+13,Active,No,Traditional,Intermediate/Middle/Junior High,Public,Edwin Markham Middle,Los Angeles Unified,Los Angeles,1650 East 104th Street,Los Angeles,CA,90002-3606,33.9397,-118.244982,Yes,2,Los Angeles CO Land Type 2011,1.96473E+13,8-Jun,8-Jun
95,1.96473E+13,Active,No,Traditional,Elementary,Public,Seventy-Fourth Street Elementary,Los Angeles Unified,Los Angeles,2112 West 74th Street,Los Angeles,CA,90047-2118,33.972323,-118.31664,No,1,Los Angeles CO Land Type 2011,1.96473E+13,K-5,K-5
96,1.96473E+13,Active,No,Traditional,Elementary,Public,Saturn Street Elementary,Los Angeles Unified,Los Angeles,5360 Saturn Street,Los Angeles,CA,90019-3960,34.046187,-118.356432,No,1,Los Angeles CO Land Type 2011,1.96473E+13,K-5,K-5
97,1.96473E+13,Active,Yes,Traditional,Elementary,Public,Van Gogh Charter,Los Angeles Unified,Los Angeles,17160 Van Gogh Street,Granada Hills,CA,91344-1217,34.304829,-118.505825,No,1,Los Angeles CO Land Type 2011,1.96473E+13,K-5,K-5
98,1.96473E+13,Active,Yes,Traditional,Intermediate/Middle/Junior High,Public,Robert A. Millikan Affiliated Charter & Performing Arts Magnet Middle,Los Angeles Unified,Los Angeles,5041 Sunnyslope Avenue,Sherman Oaks,CA,91423-1445,34.163516,-118.428489,No,1,Los Angeles CO Land Type 2011,1.96473E+13,8-Jun,8-Jun
99,1.96473E+13,Active,No,Traditional,Intermediate/Middle/Junior High,Public,Francisco Sepulveda Middle,Los Angeles Unified,Los Angeles,15330 Plummer Street,North Hills,CA,91343-2228,34.241019,-118.465946,Yes,2,Los Angeles CO Land Type 2011,1.96473E+13,8-Jun,8-Jun
100,1.96473E+13,Active,No,Traditional,Intermediate/Middle/Junior High,Public,Van Nuys Middle,Los Angeles Unified,Los Angeles,5435 Vesper Avenue,Van Nuys,CA,91411-3738,34.168922,-118.451976,Yes,2,Los Angeles CO Land Type 2011,1.96473E+13,8-Jun,8-Jun
101,1.96473E+13,Active,No,Traditional,Elementary,Public,Vena Avenue Elementary,Los Angeles Unified,Los Angeles,9377 Vena Avenue,Arleta,CA,91331-4733,34.239828,-118.420747,No,1,Los Angeles CO Land Type 2011,1.96473E+13,K-5,K-5
102,1.96473E+13,Active,Yes,Traditional,Intermediate/Middle/Junior High,Public,Alfred B. Nobel Charter Middle,Los Angeles Unified,Los Angeles,9950 Tampa Avenue,Northridge,CA,91324-1142,34.251085,-118.551358,No,1,Los Angeles CO Land Type 2011,1.96473E+13,8-Jun,8-Jun
103,1.96473E+13,Active,Yes,Traditional,Elementary,Public,Sherman Oaks Elementary Charter,Los Angeles Unified,Los Angeles,14755 Greenleaf Street,Sherman Oaks,CA,91403-4127,34.149979,-118.455018,No,1,Los Angeles CO Land Type 2011,1.96473E+13,K-5,K-5
104,1.96473E+13,Active,No,Traditional,Elementary,Public,Sierra Park Elementary,Los Angeles Unified,Los Angeles,3170 Budau Avenue,Los Angeles,CA,90032-2856,34.082078,-118.168905,No,1,Los Angeles CO Land Type 2011,1.96473E+13,K-6,K-6
105,1.96473E+13,Active,No,Traditional,Intermediate/Middle/Junior High,Public,Pio Pico Middle,Los Angeles Unified,Los Angeles,1512 South Arlington Avenue,Los Angeles,CA,90019-4552,34.045857,-118.316935,No,1,Los Angeles CO Land Type 2011,1.96473E+13,8-Jun,8-Jun
106,1.96473E+13,Active,No,Traditional,Intermediate/Middle/Junior High,Public,Griffith Middle,Los Angeles Unified,Los Angeles,4765 East Fourth Street,Los Angeles,CA,90022-1846,34.032027,-118.161556,No,1,Los Angeles CO Land Type 2011,1.96473E+13,8-Jun,8-Jun
107,1.96473E+13,Active,No,Traditional,Elementary,Public,Virginia Road Elementary,Los Angeles Unified,Los Angeles,2925 Virginia Road,Los Angeles,CA,90016-3628,34.028522,-118.339988,Yes,2,Los Angeles CO Land Type 2011,1.96473E+13,K-5,K-5
108,1.96473E+13,Active,Yes,Traditional,Intermediate/Middle/Junior High,Public,Paul Revere Charter Middle,Los Angeles Unified,Los Angeles,1450 Allenford Avenue,Los Angeles,CA,90049-3614,34.057417,-118.494753,No,1,Los Angeles CO Land Type 2011,1.96473E+13,8-Jun,8-Jun
109,1.96473E+13,Active,No,Traditional,Elementary,Public,Lenicia B. Weemes Elementary,Los Angeles Unified,Los Angeles,1260 West 36th Place,Los Angeles,CA,90007-3947,34.021459,-118.295998,No,1,Los Angeles CO Land Type 2011,1.96473E+13,K-5,K-5
110,1.96473E+13,Active,Yes,Traditional,Elementary,Public,Hamlin Charter Academy,Los Angeles Unified,Los Angeles,22627 Hamlin Street,West Hills,CA,91307-3603,34.189829,-118.619992,No,1,Los Angeles CO Land Type 2011,1.96473E+13,K-5,K-5
111,1.96473E+13,Active,No,Traditional,Elementary,Public,Haddon Avenue Elementary,Los Angeles Unified,Los Angeles,10115 Haddon Avenue,Pacoima,CA,91331-3208,34.253283,-118.421937,No,1,Los Angeles CO Land Type 2011,1.96473E+13,K-5,K-5
112,1.96473E+13,Active,No,Traditional,Elementary,Public,Warner Avenue Elementary,Los Angeles Unified,Los Angeles,615 Holmby Avenue,Los Angeles,CA,90024-2535,34.069508,-118.433723,No,1,Los Angeles CO Land Type 2011,1.96473E+13,K-5,K-5
113,1.96473E+13,Active,No,Traditional,Elementary,Public,Roscomare Road Elementary,Los Angeles Unified,Los Angeles,2425 Roscomare Road,Los Angeles,CA,90077-1812,34.120307,-118.464746,No,1,Los Angeles CO Land Type 2011,1.96473E+13,K-5,K-5
114,1.96473E+13,Active,Yes,Traditional,Elementary,Public,Fenton Primary Center,Los Angeles Unified,Los Angeles,11351 Dronfield Avenue,Pacoima,CA,91331-1404,34.279929,-118.390395,Yes,2,Los Angeles CO Land Type 2011,1.96473E+13,K-2,K-2
115,1.96473E+13,Active,Yes,Traditional,Elementary,Public,Castlebay Lane Charter,Los Angeles Unified,Los Angeles,19010 Castlebay Lane,Porter Ranch,CA,91326-1005,34.293419,-118.54749,No,1,Los Angeles CO Land Type 2011,1.96473E+13,K-5,K-5
116,1.96473E+13,Active,No,Traditional,Elementary,Public,Mountain View Elementary,Los Angeles Unified,Los Angeles,6410 Olcott Street,Tujunga,CA,91042-2830,34.248286,-118.272395,No,1,Los Angeles CO Land Type 2011,1.96473E+13,K-5,K-5
117,1.96473E+13,Active,No,Traditional,Elementary,Public,Fernangeles Elementary,Los Angeles Unified,Los Angeles,12001 Art Street,Sun Valley,CA,91352-2499,34.231732,-118.39503,No,1,Los Angeles CO Land Type 2011,1.96473E+13,K-5,K-5
118,1.96473E+13,Active,Yes,Traditional,Elementary,Public,Kenter Canyon Elementary Charter,Los Angeles Unified,Los Angeles,645 North Kenter Avenue,Los Angeles,CA,90049-1946,34.069974,-118.488855,No,1,Los Angeles CO Land Type 2011,1.96473E+13,K-5,K-5
119,1.96473E+13,Active,No,Traditional,Elementary,Public,Stonehurst Avenue Elementary,Los Angeles Unified,Los Angeles,9851 Stonehurst Avenue,Sun Valley,CA,91352-1222,34.248886,-118.370665,No,1,Los Angeles CO Land Type 2011,1.96473E+13,K-5,K-5
120,1.96473E+13,Active,No,Traditional,Intermediate/Middle/Junior High,Public,Walter Reed Middle,Los Angeles Unified,Los Angeles,4525 Irvine Avenue,North Hollywood,CA,91602-1915,34.152597,-118.386601,No,1,Los Angeles CO Land Type 2011,1.96473E+13,8-Jun,8-Jun
121,1.96473E+13,Active,Yes,Traditional,Elementary,Public,Nestle Avenue Charter,Los Angeles Unified,Los Angeles,5060 Nestle Avenue,Tarzana,CA,91356-4350,34.161862,-118.529913,No,1,Los Angeles CO Land Type 2011,1.96473E+13,K-5,K-5
122,1.96473E+13,Active,No,Traditional,Elementary,Public,Sunland Elementary,Los Angeles Unified,Los Angeles,8350 Hillrose Street,Sunland,CA,91040-2406,34.262539,-118.314325,No,1,Los Angeles CO Land Type 2011,1.96473E+13,K-5,K-5
123,1.96473E+13,Active,No,Traditional,Elementary,Public,Lanai Road Elementary,Los Angeles Unified,Los Angeles,4241 Lanai Road,Encino,CA,91436-3614,34.148355,-118.493165,No,1,Los Angeles CO Land Type 2011,1.96473E+13,K-5,K-5
124,1.96473E+13,Active,No,Traditional,Elementary,Public,Harding Street Elementary,Los Angeles Unified,Los Angeles,13060 Harding Street,Sylmar,CA,91342-4814,34.304866,-118.416833,No,1,Los Angeles CO Land Type 2011,1.96473E+13,K-5,K-5
125,1.96473E+13,Active,No,Traditional,Elementary,Public,Hubbard Street Elementary,Los Angeles Unified,Los Angeles,13325 Hubbard Street,Sylmar,CA,91342-3224,34.314095,-118.424468,No,1,Los Angeles CO Land Type 2011,1.96473E+13,K-5,K-5
126,1.96473E+13,Active,No,Traditional,Elementary,Public,Fifty-Second Street Elementary,Los Angeles Unified,Los Angeles,816 West 51st Street,Los Angeles,CA,90037-3603,33.995857,-118.288428,No,1,Los Angeles CO Land Type 2011,1.96473E+13,K-5,K-5
127,1.96473E+13,Active,No,Traditional,Elementary,Public,Esperanza Elementary,Los Angeles Unified,Los Angeles,680 Little Street,Los Angeles,CA,90017-1644,34.054957,-118.271698,No,1,Los Angeles CO Land Type 2011,1.96473E+13,K-5,K-5
128,1.96473E+13,Active,No,Traditional,Elementary,Public,Lillian Street Elementary,Los Angeles Unified,Los Angeles,5909 Lillian Street,Los Angeles,CA,90001-1433,33.98577,-118.240482,No,1,Los Angeles CO Land Type 2011,1.96473E+13,K-6,K-6
129,1.96473E+13,Active,No,Traditional,Intermediate/Middle/Junior High,Public,South Gate Middle,Los Angeles Unified,Los Angeles,4100 Firestone Boulevard,South Gate,CA,90280-3218,33.951824,-118.198038,No,1,Los Angeles CO Land Type 2011,1.96473E+13,8-Jun,8-Jun
130,1.96473E+13,Active,No,Traditional,Elementary,Public,Victoria Avenue Elementary,Los Angeles Unified,Los Angeles,3320 Missouri Avenue,South Gate,CA,90280-4308,33.946178,-118.211117,No,1,Los Angeles CO Land Type 2011,1.96473E+13,K-5,K-5
131,1.96473E+13,Active,No,Traditional,Elementary,Public,Tweedy Elementary,Los Angeles Unified,Los Angeles,9724 Pinehurst Avenue,South Gate,CA,90280-5222,33.943671,-118.18172,No,1,Los Angeles CO Land Type 2011,1.96473E+13,K-5,K-5
132,1.96473E+13,Active,No,Traditional,Elementary,Public,Teresa Hughes Elementary,Los Angeles Unified,Los Angeles,4242 Clara Street,Cudahy,CA,90201-5010,33.965672,-118.193467,No,1,Los Angeles CO Land Type 2011,1.96473E+13,K-6,K-6
133,1.96473E+13,Active,No,Traditional,Elementary,Public,Nueva Vista Elementary,Los Angeles Unified,Los Angeles,4412 Randolph Street,Bell,CA,90201-1224,33.98095,-118.188701,No,1,Los Angeles CO Land Type 2011,1.96473E+13,K-6,K-6
134,1.96473E+13,Active,No,Traditional,Elementary,Public,Bandini Street Elementary,Los Angeles Unified,Los Angeles,425 North Bandini Street,San Pedro,CA,90731-1804,33.746439,-118.3,No,1,Los Angeles CO Land Type 2011,1.96473E+13,K-5,K-6
135,1.96473E+13,Active,No,Traditional,Elementary,Public,Eshelman Avenue Elementary,Los Angeles Unified,Los Angeles,25902 Eshelman Avenue,Lomita,CA,90717-3223,33.788281,-118.313877,No,1,Los Angeles CO Land Type 2011,1.96473E+13,K-5,K-5
136,1.96473E+13,Active,No,Traditional,Elementary,Public,Walnut Park Elementary,Los Angeles Unified,Los Angeles,2642 Olive Street,Huntington Park,CA,90255-6324,33.96735,-118.223705,No,1,Los Angeles CO Land Type 2011,1.96473E+13,K-5,K-5
137,1.96473E+13,Active,No,Traditional,Elementary,Public,Fifteenth Street Elementary,Los Angeles Unified,Los Angeles,1527 South Mesa Street,San Pedro,CA,90731-4834,33.730136,-118.286826,No,1,Los Angeles CO Land Type 2011,1.96473E+13,K-5,K-5
138,1.96473E+13,Active,No,Traditional,Elementary,Public,Fairburn Avenue Elementary,Los Angeles Unified,Los Angeles,1403 Fairburn Avenue,Los Angeles,CA,90024-6014,34.058785,-118.431571,No,1,Los Angeles CO Land Type 2011,1.96473E+13,K-5,K-5
139,1.96473E+13,Active,No,Traditional,Elementary,Public,Cimarron Avenue Elementary,Los Angeles Unified,Los Angeles,11559 Cimarron Avenue,Hawthorne,CA,90250-1914,33.929058,-118.315966,No,1,Los Angeles CO Land Type 2011,1.96473E+13,K-5,K-5
140,1.96473E+13,Active,No,Traditional,Elementary,Public,One Hundred Seventh Street Elementary,Los Angeles Unified,Los Angeles,147 East 107th Street,Los Angeles,CA,90003-4732,33.940181,-118.272494,No,1,Los Angeles CO Land Type 2011,1.96473E+13,K-5,K-5
141,1.96473E+13,Active,No,Traditional,Elementary,Public,Cabrillo Avenue Elementary,Los Angeles Unified,Los Angeles,732 South Cabrillo Avenue,San Pedro,CA,90731-3025,33.737422,-118.293632,No,1,Los Angeles CO Land Type 2011,1.96473E+13,K-5,K-5
142,1.96473E+13,Active,No,Traditional,Intermediate/Middle/Junior High,Public,Alexander Fleming Middle,Los Angeles Unified,Los Angeles,25425 Walnut Street,Lomita,CA,90717-2610,33.792178,-118.313267,No,1,Los Angeles CO Land Type 2011,1.96473E+13,8-Jun,8-Jun
143,1.96473E+13,Active,No,Traditional,Elementary,Public,Denker Avenue Elementary,Los Angeles Unified,Los Angeles,1620 West 162nd Street,Gardena,CA,90247-3734,33.882813,-118.305428,No,1,Los Angeles CO Land Type 2011,1.96473E+13,K-5,K-5
144,1.96473E+13,Active,No,Traditional,Elementary,Public,Florence Avenue Elementary,Los Angeles Unified,Los Angeles,7211 Bell Avenue,Los Angeles,CA,90001-2716,33.973797,-118.238801,No,1,Los Angeles CO Land Type 2011,1.96473E+13,K-6,K-6
145,1.96473E+13,Active,No,Traditional,Elementary,Public,La Salle Avenue Elementary,Los Angeles Unified,Los Angeles,8715 La Salle Avenue,Los Angeles,CA,90047-3320,33.957665,-118.306281,No,1,Los Angeles CO Land Type 2011,1.96473E+13,K-5,K-5
146,1.96473E+13,Active,No,Traditional,Intermediate/Middle/Junior High,Public,Hollenbeck Middle,Los Angeles Unified,Los Angeles,2510 East Sixth Street,Los Angeles,CA,90023-1420,34.036116,-118.212157,No,1,Los Angeles CO Land Type 2011,1.96473E+13,8-Jun,8-Jun
147,1.96473E+13,Active,No,Traditional,Elementary,Public,Towne Avenue Elementary,Los Angeles Unified,Los Angeles,18924 Towne Avenue,Carson,CA,90746-2165,33.857751,-118.267157,No,1,Los Angeles CO Land Type 2011,1.96473E+13,K-5,K-5
148,1.96473E+13,Active,No,Traditional,Elementary,Public,Brockton Avenue Elementary,Los Angeles Unified,Los Angeles,1309 Armacost Avenue,Los Angeles,CA,90025-1459,34.0441,-118.462834,No,1,Los Angeles CO Land Type 2011,1.96473E+13,K-5,K-5
149,1.96473E+13,Active,No,Traditional,Elementary,Public,Gil Garcetti Learning Academy,Los Angeles Unified,Los Angeles,612 West 68th Street,Los Angeles,CA,90044-6204,33.977185,-118.284319,No,1,Los Angeles CO Land Type 2011,1.96473E+13,K-6,K-6
150,1.96473E+13,Active,No,Traditional,Intermediate/Middle/Junior High,Public,Samuel Gompers Middle,Los Angeles Unified,Los Angeles,234 East 112th Street,Los Angeles,CA,90061-2542,33.932037,-118.271424,Yes,2,Los Angeles CO Land Type 2011,1.96473E+13,8-Jun,8-Jun
151,1.96473E+13,Active,No,Traditional,Elementary,Public,Liberty Boulevard Elementary,Los Angeles Unified,Los Angeles,2728 Liberty Boulevard,South Gate,CA,90280-2055,33.961163,-118.221568,No,1,Los Angeles CO Land Type 2011,1.96473E+13,K-5,K-5
152,1.96473E+13,Active,No,Traditional,Elementary,Public,One Hundred Fifty-Sixth Street Elementary,Los Angeles Unified,Los Angeles,2100 West 156th Street,Gardena,CA,90249-4703,33.888743,-118.316464,No,1,Los Angeles CO Land Type 2011,1.96473E+13,K-6,K-6
153,1.96473E+13,Active,No,Traditional,Elementary,Public,Leland Street Elementary,Los Angeles Unified,Los Angeles,2120 South Leland Street,San Pedro,CA,90731-5224,33.724739,-118.300112,No,1,Los Angeles CO Land Type 2011,1.96473E+13,K-5,K-5
154,1.96473E+13,Active,No,Traditional,Elementary,Public,Meyler Street Elementary,Los Angeles Unified,Los Angeles,1123 West 223rd Street,Torrance,CA,90502-2250,33.825404,-118.295839,No,1,Los Angeles CO Land Type 2011,1.96473E+13,K-5,K-5
155,1.96473E+13,Active,No,Traditional,Elementary,Public,Miramonte Elementary,Los Angeles Unified,Los Angeles,1400 East 68th Street,Los Angeles,CA,90001-1916,33.977509,-118.249619,No,1,Los Angeles CO Land Type 2011,1.96473E+13,K-5,K-5
156,1.96473E+13,Active,No,Traditional,Elementary,Public,Shenandoah Street Elementary,Los Angeles Unified,Los Angeles,2450 Shenandoah Street,Los Angeles,CA,90034-2026,34.038507,-118.384125,No,1,Los Angeles CO Land Type 2011,1.96473E+13,K-5,K-5
157,1.96473E+13,Active,No,Traditional,Elementary,Public,Chapman Elementary,Los Angeles Unified,Los Angeles,1947 Marine Avenue,Gardena,CA,90249-3803,33.895511,-118.31287,No,1,Los Angeles CO Land Type 2011,1.96473E+13,K-5,K-5
158,1.96473E+13,Active,No,Traditional,Elementary,Public,Sixth Avenue Elementary,Los Angeles Unified,Los Angeles,3109 Sixth Avenue,Los Angeles,CA,90018-2920,34.02663,-118.324179,Yes,2,Los Angeles CO Land Type 2011,1.96473E+13,K-5,K-5
159,1.96473E+13,Active,No,Traditional,Elementary,Public,Dolores Street Elementary,Los Angeles Unified,Los Angeles,22526 Dolores Street,Carson,CA,90745-3810,33.821173,-118.271852,No,1,Los Angeles CO Land Type 2011,1.96473E+13,K-5,K-5
160,1.96473E+13,Active,No,Traditional,Elementary,Public,Grape Street Elementary,Los Angeles Unified,Los Angeles,1940 East 111th Street,Los Angeles,CA,90059-2002,33.933845,-118.237665,No,1,Los Angeles CO Land Type 2011,1.96473E+13,K-5,K-5
161,1.96473E+13,Active,No,Traditional,Elementary,Public,Short Avenue Elementary,Los Angeles Unified,Los Angeles,12814 Maxella Avenue,Los Angeles,CA,90066-6107,33.990043,-118.431986,No,1,Los Angeles CO Land Type 2011,1.96473E+13,K-6,K-6
162,1.96473E+13,Active,No,Traditional,Elementary,Public,Dominguez Elementary,Los Angeles Unified,Los Angeles,21250 Santa Fe Avenue,Carson,CA,90810-1446,33.836112,-118.213816,No,1,Los Angeles CO Land Type 2011,1.96473E+13,K-5,K-5
163,1.96473E+13,Active,No,Traditional,Elementary,Public,Sixty-First Street Elementary,Los Angeles Unified,Los Angeles,6020 South Figueroa Street,Los Angeles,CA,90003-1020,33.984393,-118.281758,No,1,Los Angeles CO Land Type 2011,1.96473E+13,K-6,K-6
164,1.96473E+13,Active,No,Traditional,Elementary,Public,Parmelee Avenue Elementary,Los Angeles Unified,Los Angeles,1338 East 76th Place,Los Angeles,CA,90001-3006,33.970008,-118.250942,No,1,Los Angeles CO Land Type 2011,1.96473E+13,K-6,K-6
165,1.96473E+13,Active,No,Traditional,Elementary,Public,Park Western Place Elementary,Los Angeles Unified,Los Angeles,1214 Park Western Place,San Pedro,CA,90732-2220,33.753082,-118.303968,No,1,Los Angeles CO Land Type 2011,1.96473E+13,K-5,K-5
166,1.96473E+13,Active,No,Traditional,Elementary,Public,Harbor City Elementary,Los Angeles Unified,Los Angeles,1508 West 254th Street,Harbor City,CA,90710-2717,33.793154,-118.303526,No,1,Los Angeles CO Land Type 2011,1.96473E+13,K-5,K-5
167,1.96473E+13,Active,No,Traditional,Elementary,Public,Barton Hill Elementary,Los Angeles Unified,Los Angeles,423 North Pacific Avenue,San Pedro,CA,90731-2019,33.746468,-118.288982,No,1,Los Angeles CO Land Type 2011,1.96473E+13,K-5,K-5
168,1.96473E+13,Active,No,Traditional,Elementary,Public,Middleton Street Elementary,Los Angeles Unified,Los Angeles,6537 Malabar Street,Huntington Park,CA,90255-4025,33.980347,-118.228351,No,1,Los Angeles CO Land Type 2011,1.96473E+13,6-Jan,6-Jan
169,1.96473E+13,Active,No,Traditional,Elementary,Public,Loyola Village Fine And Performing Arts Magnet,Los Angeles Unified,Los Angeles,8821 Villanova Avenue,Los Angeles,CA,90045-3496,33.957623,-118.421267,No,1,Los Angeles CO Land Type 2011,1.96473E+13,K-5,K-5
170,1.96473E+13,Active,No,Traditional,Elementary,Public,Point Fermin Elementary,Los Angeles Unified,Los Angeles,3333 Kerckhoff Avenue,San Pedro,CA,90731-6712,33.714147,-118.290168,No,1,Los Angeles CO Land Type 2011,1.96473E+13,K-5,K-5
171,1.96473E+13,Active,No,Traditional,Elementary,Public,Kentwood Elementary,Los Angeles Unified,Los Angeles,8401 Emerson Avenue,Los Angeles,CA,90045-2890,33.962148,-118.404979,No,1,Los Angeles CO Land Type 2011,1.96473E+13,K-5,K-5
172,1.96473E+13,Active,No,Traditional,Elementary,Public,Overland Avenue Elementary,Los Angeles Unified,Los Angeles,10650 Ashby Avenue,Los Angeles,CA,90064-3209,34.038077,-118.42068,No,1,Los Angeles CO Land Type 2011,1.96473E+13,K-5,K-5
173,1.96473E+13,Active,No,Traditional,Elementary,Public,Ninety-Ninth Street Elementary,Los Angeles Unified,Los Angeles,9900 South Wadsworth Avenue,Los Angeles,CA,90002-2746,33.946375,-118.257472,No,1,Los Angeles CO Land Type 2011,1.96473E+13,K-6,K-6
174,1.96473E+13,Active,No,Traditional,Elementary,Public,Westminster Avenue Elementary,Los Angeles Unified,Los Angeles,1010 Abbott Kinney Boulevard,Venice,CA,90291-3312,33.991357,-118.472228,No,1,Los Angeles CO Land Type 2011,1.96473E+13,K-5,K-5
175,1.96473E+13,Active,No,Traditional,Elementary,Public,Western Avenue Technology Magnet,Los Angeles Unified,Los Angeles,1724 West 53rd Street,Los Angeles,CA,90062-2718,33.993706,-118.307275,No,1,Los Angeles CO Land Type 2011,1.96473E+13,K-7,K-6
176,1.96473E+13,Active,No,Traditional,Elementary,Public,Bryson Avenue Elementary,Los Angeles Unified,Los Angeles,4470 Missouri Avenue,South Gate,CA,90280-5057,33.944145,-118.192776,No,1,Los Angeles CO Land Type 2011,1.96473E+13,K-5,K-5
177,1.96473E+13,Active,No,Traditional,Elementary,Public,Gulf Avenue Elementary,Los Angeles Unified,Los Angeles,828 West L Street,Wilmington,CA,90744-3310,33.785485,-118.272723,No,1,Los Angeles CO Land Type 2011,1.96473E+13,K-5,K-5
178,1.96473E+13,Active,No,Traditional,Elementary,Public,Richland Avenue Elementary,Los Angeles Unified,Los Angeles,11562 Richland Avenue,Los Angeles,CA,90064-3733,34.027535,-118.438999,No,1,Los Angeles CO Land Type 2011,1.96473E+13,K-5,K-6
179,1.96473E+13,Active,No,Traditional,Elementary,Public,Two Hundred Thirty-Second Place,Los Angeles Unified,Los Angeles,23240 Archibald Avenue,Carson,CA,90745-5117,33.814113,-118.281679,No,1,Los Angeles CO Land Type 2011,1.96473E+13,K-5,K-5
180,1.96473E+13,Active,No,Traditional,Elementary,Public,Raymond Avenue Elementary,Los Angeles Unified,Los Angeles,7511 Raymond Avenue,Los Angeles,CA,90044-2430,33.971678,-118.299186,Yes,2,Los Angeles CO Land Type 2011,1.96473E+13,K-5,K-5
181,1.96473E+13,Active,No,Traditional,Elementary,Public,Nora Sterry Elementary,Los Angeles Unified,Los Angeles,1730 Corinth Avenue,Los Angeles,CA,90025-4211,34.044342,-118.447289,No,1,Los Angeles CO Land Type 2011,1.96473E+13,K-5,K-5
182,1.96473E+13,Active,No,Traditional,Elementary,Public,Sixty-Sixth Street Elementary,Los Angeles Unified,Los Angeles,6600 South San Pedro Street,Los Angeles,CA,90003-1938,33.979573,-118.267965,No,1,Los Angeles CO Land Type 2011,1.96473E+13,K-6,K-6
183,1.96473E+13,Active,No,Traditional,Elementary,Public,Carson Street Elementary,Los Angeles Unified,Los Angeles,161 East Carson Street,Carson,CA,90745-2772,33.832565,-118.27521,No,1,Los Angeles CO Land Type 2011,1.96473E+13,K-5,K-5
184,1.96473E+13,Active,No,Traditional,Elementary,Public,Fries Avenue Elementary,Los Angeles Unified,Los Angeles,1301 Fries Avenue,Wilmington,CA,90744-2510,33.788726,-118.266148,No,1,Los Angeles CO Land Type 2011,1.96473E+13,K-5,K-5
185,1.96473E+13,Active,No,Traditional,Intermediate/Middle/Junior High,Public,Charles Maclay Middle,Los Angeles Unified,Los Angeles,12540 Pierce Avenue,Pacoima,CA,91331-1701,34.271169,-118.406077,Yes,2,Los Angeles CO Land Type 2011,1.96473E+13,8-Jun,8-Jun
186,1.96473E+13,Active,No,Traditional,Elementary,Public,Telfair Avenue Elementary,Los Angeles Unified,Los Angeles,10975 Telfair Avenue,Pacoima,CA,91331-2821,34.268172,-118.431878,No,1,Los Angeles CO Land Type 2011,1.96473E+13,K-5,K-5
187,1.96473E+13,Active,No,Traditional,Elementary,Public,O'Melveny Elementary,Los Angeles Unified,Los Angeles,728 Woodworth Street,San Fernando,CA,91340-4219,34.275328,-118.445185,No,1,Los Angeles CO Land Type 2011,1.96473E+13,K-5,K-5
188,1.96473E+13,Active,No,Traditional,Intermediate/Middle/Junior High,Public,San Fernando Middle,Los Angeles Unified,Los Angeles,130 North Brand Boulevard,San Fernando,CA,91340-2996,34.282353,-118.436604,Yes,2,Los Angeles CO Land Type 2011,1.96473E+13,8-Jun,8-Jun
189,1.96473E+13,Active,No,Traditional,Elementary,Public,Osceola Street Elementary,Los Angeles Unified,Los Angeles,14940 Osceola Street,Sylmar,CA,91342-5280,34.289823,-118.456312,No,1,Los Angeles CO Land Type 2011,1.96473E+13,K-5,K-5
190,1.96473E+13,Active,No,Traditional,Intermediate/Middle/Junior High,Public,Olive Vista Middle,Los Angeles Unified,Los Angeles,14600 Tyler Street,Sylmar,CA,91342-2826,34.310963,-118.449259,No,1,Los Angeles CO Land Type 2011,1.96473E+13,8-Jun,8-Jun
191,1.96473E+13,Active,No,Traditional,Elementary,Public,San Fernando Elementary,Los Angeles Unified,Los Angeles,1130 Mott Street,San Fernando,CA,91340-4126,34.279302,-118.448175,No,1,Los Angeles CO Land Type 2011,1.96473E+13,K-5,K-5
192,1.96473E+13,Active,No,Traditional,Elementary,Public,Sylmar Elementary,Los Angeles Unified,Los Angeles,13291 Phillippi Avenue,Sylmar,CA,91342-2810,34.311793,-118.447137,No,1,Los Angeles CO Land Type 2011,1.96473E+13,K-5,K-5
193,1.96473E+13,Active,No,Traditional,Elementary,Public,El Dorado Avenue Elementary,Los Angeles Unified,Los Angeles,12749 El Dorado Avenue,Sylmar,CA,91342-3704,34.300652,-118.466259,No,1,Los Angeles CO Land Type 2011,1.96473E+13,K-5,K-5
194,1.96473E+13,Active,Yes,Traditional,Elementary,Public,Knollwood Preparatory Academy,Los Angeles Unified,Los Angeles,11822 Gerald Avenue,Granada Hills,CA,91344-2849,34.285361,-118.49254,No,1,Los Angeles CO Land Type 2011,1.96473E+13,K-5,K-5
195,1.96473E+13,Active,No,Traditional,Elementary,Public,Tulsa Street Elementary,Los Angeles Unified,Los Angeles,10900 Hayvenhurst Avenue,Granada Hills,CA,91344-5121,34.269231,-118.492357,No,1,Los Angeles CO Land Type 2011,1.96473E+13,K-5,K-5
196,1.96473E+13,Active,No,Traditional,Elementary,Public,Haskell Elementary Science Technology Engineering Arts And Mathematics (STEAM) Magnet,Los Angeles Unified,Los Angeles,15850 Tulsa Street,Granada Hills,CA,91344-5525,34.267355,-118.478153,No,1,Los Angeles CO Land Type 2011,1.96473E+13,K-5,K-5
197,1.96473E+13,Active,No,Traditional,Elementary,Public,Arminta Street Elementary,Los Angeles Unified,Los Angeles,11530 Strathern Street,North Hollywood,CA,91605-1619,34.214783,-118.3826,No,1,Los Angeles CO Land Type 2011,1.96473E+13,K-5,K-5
198,1.96473E+13,Active,No,Traditional,Elementary,Public,Glenwood Elementary,Los Angeles Unified,Los Angeles,8001 Ledge Avenue,Sun Valley,CA,91352-4143,34.216264,-118.35876,No,1,Los Angeles CO Land Type 2011,1.96473E+13,K-5,K-5
199,1.96473E+13,Active,No,Traditional,Elementary,Public,Toluca Lake Elementary,Los Angeles Unified,Los Angeles,4840 Cahuenga Boulevard,North Hollywood,CA,91601-4799,34.159259,-118.360374,No,1,Los Angeles CO Land Type 2011,1.96473E+13,K-5,K-5
200,1.96473E+13,Active,No,Traditional,Elementary,Public,Fair Avenue Elementary,Los Angeles Unified,Los Angeles,6501 Fair Avenue,North Hollywood,CA,91606-2603,34.189367,-118.375715,No,1,Los Angeles CO Land Type 2011,1.96473E+13,K-5,K-5
201,1.96473E+13,Active,No,Traditional,Elementary,Public,Oxnard Street Elementary,Los Angeles Unified,Los Angeles,10912 Oxnard Street,North Hollywood,CA,91606-4910,34.178503,-118.368653,No,1,Los Angeles CO Land Type 2011,1.96473E+13,K-5,K-5
202,1.96473E+13,Active,No,Traditional,Elementary,Public,Victory Boulevard Elementary,Los Angeles Unified,Los Angeles,6315 Radford Avenue,North Hollywood,CA,91606-3316,34.185658,-118.392946,No,1,Los Angeles CO Land Type 2011,1.96473E+13,K-5,K-5
203,1.96473E+13,Active,No,Traditional,Elementary,Public,Sharp Avenue Elementary,Los Angeles Unified,Los Angeles,13800 Pierce Street,Arleta,CA,91331-4530,34.252292,-118.432521,No,1,Los Angeles CO Land Type 2011,1.96473E+13,K-5,K-5
204,1.96473E+13,Active,No,Traditional,Elementary,Public,Chandler Elementary,Los Angeles Unified,Los Angeles,14030 Weddington Street,Sherman Oaks,CA,91401-5753,34.16581,-118.438981,No,1,Los Angeles CO Land Type 2011,1.96473E+13,K-5,K-5
205,1.96473E+13,Active,No,Traditional,Elementary,Public,Sylvan Park Elementary,Los Angeles Unified,Los Angeles,6238 Noble Avenue,Van Nuys,CA,91411-2026,34.183293,-118.46072,No,1,Los Angeles CO Land Type 2011,1.96473E+13,K-5,K-5
206,1.96473E+13,Active,No,Traditional,Elementary,Public,Beachy Avenue Elementary,Los Angeles Unified,Los Angeles,9757 Beachy Avenue,Arleta,CA,91331-5306,34.247348,-118.438911,No,1,Los Angeles CO Land Type 2011,1.96473E+13,K-5,K-5
207,1.96473E+13,Active,No,Traditional,Elementary,Public,Liggett Street Elementary,Los Angeles Unified,Los Angeles,9373 Moonbeam Avenue,Panorama City,CA,91402-1302,34.240633,-118.446418,No,1,Los Angeles CO Land Type 2011,1.96473E+13,K-5,K-5
208,1.96473E+13,Active,No,Traditional,Elementary,Public,Canterbury Avenue Elementary,Los Angeles Unified,Los Angeles,13670 Montague Street,Arleta,CA,91331-6129,34.232913,-118.429194,No,1,Los Angeles CO Land Type 2011,1.96473E+13,K-5,K-5
209,1.96473E+13,Active,No,Traditional,Intermediate/Middle/Junior High,Public,James Madison Middle,Los Angeles Unified,Los Angeles,13000 Hart Street,North Hollywood,CA,91605-4801,34.196244,-118.416501,No,1,Los Angeles CO Land Type 2011,1.96473E+13,8-Jun,8-Jun
210,1.96473E+13,Active,No,Traditional,Elementary,Public,Langdon Avenue Elementary,Los Angeles Unified,Los Angeles,8817 Langdon Avenue,North Hills,CA,91343-5004,34.230644,-118.47092,No,1,Los Angeles CO Land Type 2011,1.96473E+13,K-5,K-5
211,1.96473E+13,Active,No,Traditional,Elementary,Public,Hazeltine Avenue Elementary,Los Angeles Unified,Los Angeles,7150 Hazeltine Avenue,Van Nuys,CA,91405-3244,34.200217,-118.439379,No,1,Los Angeles CO Land Type 2011,1.96473E+13,K-5,K-5
212,1.96473E+13,Active,No,Traditional,Elementary,Public,Erwin Elementary,Los Angeles Unified,Los Angeles,13400 Erwin Street,Van Nuys,CA,91401-3014,34.182131,-118.424717,No,1,Los Angeles CO Land Type 2011,1.96473E+13,K-5,K-5
213,1.96473E+13,Active,No,Traditional,Intermediate/Middle/Junior High,Public,John A. Sutter Middle,Los Angeles Unified,Los Angeles,7330 Winnetka Avenue,Canoga Park,CA,91306-2905,34.202939,-118.569455,Yes,2,Los Angeles CO Land Type 2011,1.96473E+13,8-Jun,8-Jun
214,1.96473E+13,Active,No,Traditional,Intermediate/Middle/Junior High,Public,Christopher Columbus Middle,Los Angeles Unified,Los Angeles,22250 Elkwood Street,Canoga Park,CA,91304-5501,34.211462,-118.612004,Yes,3,Los Angeles CO Land Type 2011,1.96473E+13,8-Jun,8-Jun
215,1.96473E+13,Active,Yes,Traditional,Elementary,Public,Justice Street Academy Charter,Los Angeles Unified,Los Angeles,23350 Justice Street,West Hills,CA,91304-4402,34.215471,-118.635103,No,1,Los Angeles CO Land Type 2011,1.96473E+13,K-5,K-5
216,1.96473E+13,Active,No,Traditional,Elementary,Public,Cantara Street Elementary,Los Angeles Unified,Los Angeles,17950 Cantara Street,Reseda,CA,91335-1408,34.218428,-118.525236,No,1,Los Angeles CO Land Type 2011,1.96473E+13,K-5,K-5
217,1.96473E+13,Active,No,Traditional,Elementary,Public,Reseda Elementary,Los Angeles Unified,Los Angeles,7265 Amigo Avenue,Reseda,CA,91335-3035,34.203848,-118.538552,No,1,Los Angeles CO Land Type 2011,1.96473E+13,K-5,K-5
218,1.96473E+13,Active,No,Traditional,Elementary,Public,Lemay Street Elementary,Los Angeles Unified,Los Angeles,17520 Vanowen Street,Lake Balboa,CA,91406-4314,34.192853,-118.515389,No,1,Los Angeles CO Land Type 2011,1.96473E+13,K-5,K-5
219,1.96473E+13,Active,Yes,Traditional,Elementary,Public,Welby Way Charter Elementary School And Gifted-High Ability Magnet,Los Angeles Unified,Los Angeles,23456 Welby Way,West Hills,CA,91307-3328,34.191489,-118.637732,No,1,Los Angeles CO Land Type 2011,1.96473E+13,K-5,K-5
220,1.96473E+13,Active,No,Traditional,Elementary,Public,Anatola Avenue Elementary,Los Angeles Unified,Los Angeles,7364 Anatola Avenue,Lake Balboa,CA,91406-2350,34.203244,-118.514093,No,1,Los Angeles CO Land Type 2011,1.96473E+13,K-5,K-5
221,1.96473E+13,Active,No,Traditional,Elementary,Public,Nevada Avenue Elementary,Los Angeles Unified,Los Angeles,22120 Chase Street,West Hills,CA,91304-2307,34.223211,-118.607882,No,1,Los Angeles CO Land Type 2011,1.96473E+13,K-5,K-5
222,1.96473E+13,Active,No,Traditional,Elementary,Public,Sunny Brae Avenue Elementary,Los Angeles Unified,Los Angeles,20620 Arminta Street,Winnetka,CA,91306-2109,34.212781,-118.581969,No,1,Los Angeles CO Land Type 2011,1.96473E+13,K-5,K-5
223,1.96473E+13,Active,No,Traditional,Elementary,Public,Calahan Street Elementary,Los Angeles Unified,Los Angeles,18722 Knapp Street,Northridge,CA,91324-3027,34.23729,-118.541468,No,1,Los Angeles CO Land Type 2011,1.96473E+13,K-5,K-5
224,1.96473E+13,Active,No,Traditional,Elementary,Public,Bertrand Avenue Elementary,Los Angeles Unified,Los Angeles,7021 Bertrand Avenue,Reseda,CA,91335-4711,34.198399,-118.525286,No,1,Los Angeles CO Land Type 2011,1.96473E+13,K-5,K-5
225,1.96473E+13,Active,No,Traditional,Elementary,Public,Bassett Street Elementary,Los Angeles Unified,Los Angeles,15756 Bassett Street,Lake Balboa,CA,91406-5007,34.195268,-118.477632,No,1,Los Angeles CO Land Type 2011,1.96473E+13,K-5,K-5
226,1.96473E+13,Active,No,Traditional,Elementary,Public,Gledhill Street Elementary,Los Angeles Unified,Los Angeles,16030 Gledhill Street,North Hills,CA,91343-2917,34.241048,-118.481689,No,1,Los Angeles CO Land Type 2011,1.96473E+13,K-5,K-5
227,1.96473E+13,Active,No,Traditional,Elementary,Public,Cohasset Street Elementary,Los Angeles Unified,Los Angeles,15810 Saticoy Street,Lake Balboa,CA,91406-3128,34.207515,-118.47799,No,1,Los Angeles CO Land Type 2011,1.96473E+13,K-5,K-5
228,1.96473E+13,Active,No,Traditional,Elementary,Public,Chatsworth Park ES Urban Planning/Community Development Magnet,Los Angeles Unified,Los Angeles,22005 Devonshire Street,Chatsworth,CA,91311-2841,34.258155,-118.606933,No,1,Los Angeles CO Land Type 2011,1.96473E+13,K-5,K-5
229,1.96473E+13,Active,No,Traditional,Intermediate/Middle/Junior High,Public,Northridge Middle,Los Angeles Unified,Los Angeles,17960 Chase Street,Northridge,CA,91325-3811,34.223213,-118.52516,No,1,Los Angeles CO Land Type 2011,1.96473E+13,8-Jun,8-Jun
230,1.96473E+13,Active,No,Traditional,Elementary,Public,Stagg Street Elementary,Los Angeles Unified,Los Angeles,7839 Amestoy Avenue,Van Nuys,CA,91406-1602,34.212953,-118.506579,No,1,Los Angeles CO Land Type 2011,1.96473E+13,K-5,K-5
231,1.96473E+13,Active,No,Traditional,Elementary,Public,Gault Street Elementary,Los Angeles Unified,Los Angeles,17000 Gault Street,Lake Balboa,CA,91406-3607,34.198543,-118.504447,No,1,Los Angeles CO Land Type 2011,1.96473E+13,K-5,K-5
232,1.96473E+13,Active,No,Traditional,Elementary,Public,Napa Street Elementary,Los Angeles Unified,Los Angeles,19010 Napa Street,Northridge,CA,91324-4416,34.225508,-118.547346,No,1,Los Angeles CO Land Type 2011,1.96473E+13,K-5,K-5
233,1.96473E+13,Active,Yes,Traditional,Elementary,Public,Calvert Charter for Enriched Studies,Los Angeles Unified,Los Angeles,19850 Delano Street,Woodland Hills,CA,91367-3816,34.181773,-118.565165,No,1,Los Angeles CO Land Type 2011,1.96473E+13,K-5,K-5
234,1.96473E+13,Active,No,Traditional,Elementary,Public,Blythe Street Elementary,Los Angeles Unified,Los Angeles,18730 Blythe Street,Reseda,CA,91335-1801,34.213824,-118.541496,Yes,2,Los Angeles CO Land Type 2011,1.96473E+13,K-5,K-5
235,1.96473E+13,Active,No,Traditional,Intermediate/Middle/Junior High,Public,Oliver Wendell Holmes Middle,Los Angeles Unified,Los Angeles,9351 Paso Robles Avenue,Northridge,CA,91325-2528,34.240586,-118.506366,No,1,Los Angeles CO Land Type 2011,1.96473E+13,8-Jun,8-Jun
236,1.96473E+13,Active,No,Traditional,Elementary,Public,Shirley Avenue Elementary,Los Angeles Unified,Los Angeles,19452 Hart Street,Reseda,CA,91335-3735,34.196083,-118.557113,Yes,2,Los Angeles CO Land Type 2011,1.96473E+13,K-5,K-5
237,1.96473E+13,Active,No,Traditional,Intermediate/Middle/Junior High,Public,Patrick Henry Middle,Los Angeles Unified,Los Angeles,17340 San Jose Street,Granada Hills,CA,91344-6131,34.259419,-118.512167,No,1,Los Angeles CO Land Type 2011,1.96473E+13,8-Jun,8-Jun
238,1.96473E+13,Active,No,Traditional,Elementary,Public,Winnetka Avenue Elementary,Los Angeles Unified,Los Angeles,8240 Winnetka Avenue,Canoga Park,CA,91306-1899,34.219362,-118.570024,No,1,Los Angeles CO Land Type 2011,1.96473E+13,K-5,K-5
239,1.96473E+13,Active,No,Traditional,Elementary,Public,Hart Street Elementary,Los Angeles Unified,Los Angeles,21040 Hart Street,Canoga Park,CA,91303-2222,34.19663,-118.591692,No,1,Los Angeles CO Land Type 2011,1.96473E+13,K-5,K-5
240,1.96473E+13,Active,Yes,Traditional,Elementary,Public,Community Magnet Charter Elementary,Los Angeles Unified,Los Angeles,11301 Bellagio Road,Los Angeles,CA,90049-1705,34.083325,-118.463021,No,1,Los Angeles CO Land Type 2011,1.96473E+13,K-5,K-5
241,1.96473E+13,Active,No,Traditional,Elementary,Public,Betty Plasencia Elementary,Los Angeles Unified,Los Angeles,1321 Cortez Street,Los Angeles,CA,90026-5622,34.066001,-118.255964,No,1,Los Angeles CO Land Type 2011,1.96473E+13,K-5,K-5
242,1.96473E+13,Active,No,Traditional,Elementary,Public,Griffin Avenue Elementary,Los Angeles Unified,Los Angeles,2025 Griffin Avenue,Los Angeles,CA,90031-3003,34.068348,-118.212317,No,1,Los Angeles CO Land Type 2011,1.96473E+13,K-5,K-5
243,1.96473E+13,Active,No,Traditional,Elementary,Public,Sierra Vista Elementary,Los Angeles Unified,Los Angeles,4342 Alpha Street,Los Angeles,CA,90032-1396,34.095872,-118.159016,No,1,Los Angeles CO Land Type 2011,1.96473E+13,K-6,K-6
244,1.96473E+13,Active,No,Traditional,Elementary,Public,Clifford Street Elementary,Los Angeles Unified,Los Angeles,2150 Duane Street,Los Angeles,CA,90039-3919,34.088986,-118.258194,No,1,Los Angeles CO Land Type 2011,1.96473E+13,K-5,K-5
245,1.96473E+13,Active,No,Traditional,Elementary,Public,Ivanhoe Elementary,Los Angeles Unified,Los Angeles,2828 Herkimer Street,Los Angeles,CA,90039-2010,34.108633,-118.266837,No,1,Los Angeles CO Land Type 2011,1.96473E+13,K-5,K-5
246,1.96473E+13,Active,No,Traditional,Elementary,Public,Atwater Avenue Elementary,Los Angeles Unified,Los Angeles,3271 Silver Lake Boulevard,Los Angeles,CA,90039-2253,34.115087,-118.254557,No,1,Los Angeles CO Land Type 2011,1.96473E+13,K-6,K-6
247,1.96473E+13,Active,No,Traditional,Intermediate/Middle/Junior High,Public,Florence Nightingale Middle,Los Angeles Unified,Los Angeles,3311 North Figueroa Street,Los Angeles,CA,90065-1527,34.087731,-118.219127,No,1,Los Angeles CO Land Type 2011,1.96473E+13,8-Jun,8-Jun
248,1.96473E+13,Active,No,Traditional,Elementary,Public,Alexandria Avenue Elementary,Los Angeles Unified,Los Angeles,4211 Oakwood Avenue,Los Angeles,CA,90004-3214,34.07834,-118.299107,No,1,Los Angeles CO Land Type 2011,1.96473E+13,K-5,K-5
249,1.96473E+13,Active,No,Traditional,Elementary,Public,Lockwood Avenue Elementary,Los Angeles Unified,Los Angeles,4345 Lockwood Avenue,Los Angeles,CA,90029-2809,34.089173,-118.288167,No,1,Los Angeles CO Land Type 2011,1.96473E+13,K-6,K-6
250,1.96473E+13,Active,No,Traditional,Elementary,Public,Grant Elementary,Los Angeles Unified,Los Angeles,1530 North Wilton Place,Los Angeles,CA,90028-6716,34.099897,-118.312529,Yes,2,Los Angeles CO Land Type 2011,1.96473E+13,K-6,K-6
251,1.96473E+13,Active,No,Traditional,Elementary,Public,Rockdale Visual & Performing Arts Magnet,Los Angeles Unified,Los Angeles,1303 Yosemite Drive,Los Angeles,CA,90041-2434,34.133637,-118.194222,No,1,Los Angeles CO Land Type 2011,1.96473E+13,K-6,K-6
252,1.96473E+13,Active,No,Traditional,Elementary,Public,Monte Vista Street Elementary,Los Angeles Unified,Los Angeles,5423 Monte Vista Street,Los Angeles,CA,90042-3322,34.110539,-118.198045,No,1,Los Angeles CO Land Type 2011,1.96473E+13,K-5,5-Jan
253,1.96473E+13,Active,Yes,Traditional,Elementary - High Combination,Public,Larchmont Charter,Los Angeles Unified,Los Angeles,1265 North Fairfax Avenue,West Hollywood,CA,90046-5205,34.100301,-118.334052,Yes,2,Los Angeles CO Land Type 2011,1.96473E+13,K-12,K-12
254,1.96473E+13,Active,No,Traditional,High School,Public,Verdugo Hills Senior High,Los Angeles Unified,Los Angeles,10625 Plainview Avenue,Tujunga,CA,91042-1723,34.261383,-118.299313,Yes,2,Los Angeles CO Land Type 2011,1.96473E+13,12-Sep,12-Sep
255,1.96473E+13,Active,No,Traditional,Elementary,Public,Hillside Elementary,Los Angeles Unified,Los Angeles,120 East Avenue 35,Los Angeles,CA,90031-1938,34.084882,-118.212488,No,1,Los Angeles CO Land Type 2011,1.96473E+13,K-5,K-5
256,1.96473E+13,Active,No,Traditional,High School,Public,John Marshall Senior High,Los Angeles Unified,Los Angeles,3939 Tracy Street,Los Angeles,CA,90027-3207,34.108976,-118.277081,No,1,Los Angeles CO Land Type 2011,1.96473E+13,12-Sep,12-Sep
257,1.96473E+13,Active,No,Traditional,Elementary,Public,Mayberry Street Elementary,Los Angeles Unified,Los Angeles,2414 Mayberry Street,Los Angeles,CA,90026-2318,34.083995,-118.264878,No,1,Los Angeles CO Land Type 2011,1.96473E+13,K-5,K-5
258,1.96473E+13,Active,No,Traditional,Elementary,Public,Solano Avenue Elementary,Los Angeles Unified,Los Angeles,615 Solano Avenue,Los Angeles,CA,90012-1036,34.076154,-118.232196,No,1,Los Angeles CO Land Type 2011,1.96473E+13,K-6,K-6
259,1.96473E+13,Active,No,Traditional,Elementary,Public,Elysian Heights ES Arts Magnet,Los Angeles Unified,Los Angeles,1562 Baxter Street,Los Angeles,CA,90026-1972,34.088525,-118.249437,No,1,Los Angeles CO Land Type 2011,1.96473E+13,K-5,K-5
260,1.96473E+13,Active,No,Traditional,Elementary,Public,Cahuenga Elementary,Los Angeles Unified,Los Angeles,220 South Hobart Boulevard,Los Angeles,CA,90004-5208,34.070567,-118.304907,No,1,Los Angeles CO Land Type 2011,1.96473E+13,K-5,K-5
261,1.96473E+13,Active,No,Traditional,Elementary,Public,Loreto Street Elementary,Los Angeles Unified,Los Angeles,3408 Arroyo Seco Avenue,Los Angeles,CA,90065-2454,34.086338,-118.216863,No,1,Los Angeles CO Land Type 2011,1.96473E+13,K-5,K-5
262,1.96473E+13,Active,No,Traditional,Intermediate/Middle/Junior High,Public,Joseph Le Conte Middle,Los Angeles Unified,Los Angeles,1316 North Bronson Avenue,Hollywood,CA,90028-8415,34.09487,-118.316804,Yes,2,Los Angeles CO Land Type 2011,1.96473E+13,8-Jun,8-Jun
263,1.96473E+13,Active,No,Traditional,Elementary,Public,Dorris Place Elementary,Los Angeles Unified,Los Angeles,2225 Dorris Place,Los Angeles,CA,90031-1161,34.091242,-118.237926,No,1,Los Angeles CO Land Type 2011,1.96473E+13,K-6,K-6
264,1.96473E+13,Active,No,Traditional,Elementary,Public,Bushnell Way Elementary,Los Angeles Unified,Los Angeles,5507 Bushnell Way,Los Angeles,CA,90042-4822,34.102552,-118.189255,No,1,Los Angeles CO Land Type 2011,1.96473E+13,K-5,K-5
265,1.96473E+13,Active,No,Traditional,Elementary,Public,Ramona Elementary,Los Angeles Unified,Los Angeles,1133 North Mariposa Avenue,Los Angeles,CA,90029-1413,34.091841,-118.299875,No,1,Los Angeles CO Land Type 2011,1.96473E+13,K-6,K-6
266,1.96473E+13,Active,No,Traditional,High School,Public,Hollywood Senior High,Los Angeles Unified,Los Angeles,1521 North Highland Avenue,Los Angeles,CA,90028-7001,34.099182,-118.340061,No,1,Los Angeles CO Land Type 2011,1.96473E+13,12-Sep,12-Sep
267,1.96473E+13,Active,No,Traditional,Elementary,Public,Albion Street Elementary,Los Angeles Unified,Los Angeles,322 South Avenue 18,Los Angeles,CA,90031-2507,34.069258,-118.220246,Yes,2,Los Angeles CO Land Type 2011,1.96473E+13,K-6,K-6
268,1.96473E+13,Active,No,Traditional,Elementary,Public,Cheremoya Avenue Elementary,Los Angeles Unified,Los Angeles,6017 Franklin Avenue,Los Angeles,CA,90028-5517,34.105956,-118.320907,No,1,Los Angeles CO Land Type 2011,1.96473E+13,K-6,K-6
269,1.96473E+13,Active,No,Traditional,Elementary,Public,Annandale Elementary,Los Angeles Unified,Los Angeles,6125 Poppy Peak Drive,Los Angeles,CA,90042-1331,34.12874,-118.186614,No,1,Los Angeles CO Land Type 2011,1.96473E+13,K-5,K-5
270,1.96473E+13,Active,No,Traditional,Elementary,Public,Third Street Elementary,Los Angeles Unified,Los Angeles,201 South June Street,Los Angeles,CA,90004-1055,34.070006,-118.335345,No,1,Los Angeles CO Land Type 2011,1.96473E+13,K-5,K-5
271,1.96473E+13,Active,No,Traditional,Elementary,Public,Farmdale Elementary,Los Angeles Unified,Los Angeles,2660 Ruth Swiggett Drive,Los Angeles,CA,90032-2708,34.079396,-118.180254,Yes,2,Los Angeles CO Land Type 2011,1.96473E+13,K-5,K-5
272,1.96473E+13,Active,No,Traditional,Elementary,Public,Gardner Street Elementary,Los Angeles Unified,Los Angeles,7450 Hawthorn Avenue,Los Angeles,CA,90046-2802,34.09931,-118.352037,No,1,Los Angeles CO Land Type 2011,1.96473E+13,K-5,K-5
273,1.96473E+13,Active,No,Traditional,Elementary,Public,Latona Avenue Elementary,Los Angeles Unified,Los Angeles,4312 Berenice Avenue,Los Angeles,CA,90031-1408,34.091679,-118.202342,No,1,Los Angeles CO Land Type 2011,1.96473E+13,K-6,K-6
274,1.96473E+13,Active,No,Traditional,Elementary,Public,Toland Way Elementary,Los Angeles Unified,Los Angeles,4545 Toland Way,Los Angeles,CA,90041-3427,34.121228,-118.21764,No,1,Los Angeles CO Land Type 2011,1.96473E+13,K-6,K-6
275,1.96473E+13,Active,No,Traditional,Elementary,Public,Allesandro Elementary,Los Angeles Unified,Los Angeles,2210 Riverside Drive,Los Angeles,CA,90039-4009,34.101902,-118.251929,No,1,Los Angeles CO Land Type 2011,1.96473E+13,K-6,K-6
276,1.96473E+13,Active,No,Traditional,Elementary,Public,Pinewood Avenue Elementary,Los Angeles Unified,Los Angeles,10111 Silverton Avenue,Tujunga,CA,91042-2410,34.253101,-118.285121,No,1,Los Angeles CO Land Type 2011,1.96473E+13,K-5,K-5
277,1.96473E+13,Active,No,Traditional,Elementary,Public,Eagle Rock Elementary,Los Angeles Unified,Los Angeles,2057 Fair Park Avenue,Los Angeles,CA,90041-1999,34.136393,-118.212516,No,1,Los Angeles CO Land Type 2011,1.96473E+13,K-6,K-6
278,1.96473E+13,Active,No,Traditional,Elementary - Intermediate/Middle/Junior High Combination,Public,Glen Alta Elementary,Los Angeles Unified,Los Angeles,3410 Sierra Street,Los Angeles,CA,90031-2137,34.085282,-118.199319,No,1,Los Angeles CO Land Type 2011,1.96473E+13,K-8,K-8
279,1.96473E+13,Active,No,Traditional,Elementary,Public,Brainard Elementary,Los Angeles Unified,Los Angeles,11407 Brainard Avenue,Lake View Terrace,CA,91342-6805,34.27739,-118.36462,No,1,Los Angeles CO Land Type 2011,1.96473E+13,K-5,K-5
280,1.96473E+13,Active,No,Traditional,Elementary,Public,Dahlia Heights Elementary,Los Angeles Unified,Los Angeles,5063 Floristan Avenue,Los Angeles,CA,90041-2350,34.13885,-118.199331,No,1,Los Angeles CO Land Type 2011,1.96473E+13,K-6,K-6
281,1.96473E+13,Active,No,Traditional,Elementary,Public,Huntington Drive Elementary,Los Angeles Unified,Los Angeles,4435 North Huntington Drive,Los Angeles,CA,90032-2641,34.082645,-118.191863,No,1,Los Angeles CO Land Type 2011,1.96473E+13,K-6,K-6
282,1.96473E+13,Active,No,Traditional,Elementary,Public,Aragon Avenue Elementary,Los Angeles Unified,Los Angeles,1118 Aragon Avenue,Los Angeles,CA,90065-1704,34.094857,-118.225535,No,1,Los Angeles CO Land Type 2011,1.96473E+13,K-5,K-5
283,1.96473E+13,Active,No,Traditional,Elementary,Public,Fletcher Drive Elementary,Los Angeles Unified,Los Angeles,3350 Fletcher Drive,Los Angeles,CA,90065-2915,34.117675,-118.240135,No,1,Los Angeles CO Land Type 2011,1.96473E+13,K-5,K-5
284,1.96473E+13,Active,No,Traditional,Elementary,Public,Buchanan Street Elementary,Los Angeles Unified,Los Angeles,5024 Buchanan Street,Los Angeles,CA,90042-2340,34.119089,-118.206452,No,1,Los Angeles CO Land Type 2011,1.96473E+13,K-5,K-5
285,1.96473E+13,Active,No,Traditional,Elementary,Public,Delevan Drive Elementary,Los Angeles Unified,Los Angeles,4168 West Avenue 42,Los Angeles,CA,90065-4631,34.128619,-118.22675,No,1,Los Angeles CO Land Type 2011,1.96473E+13,K-6,K-6
286,1.96473E+13,Active,No,Traditional,Elementary,Public,Mt. Washington Elementary,Los Angeles Unified,Los Angeles,3981 San Rafael Avenue,Los Angeles,CA,90065-4013,34.10481,-118.216109,No,1,Los Angeles CO Land Type 2011,1.96473E+13,K-6,K-6
287,1.96473E+13,Active,No,Traditional,Elementary,Public,Rosewood Avenue Elementary,Los Angeles Unified,Los Angeles,503 North Croft Avenue,Los Angeles,CA,90048-2510,34.08109,-118.374739,No,1,Los Angeles CO Land Type 2011,1.96473E+13,K-5,K-5
288,1.96473E+13,Active,Yes,Traditional,Elementary,Public,Calabash Charter Academy,Los Angeles Unified,Los Angeles,23055 Eugene Street,Woodland Hills,CA,91364-3723,34.158581,-118.629491,No,1,Los Angeles CO Land Type 2011,1.96473E+13,K-5,K-5
289,1.96473E+13,Active,No,Traditional,Elementary,Public,Yorkdale Elementary,Los Angeles Unified,Los Angeles,5657 Meridian Street,Los Angeles,CA,90042-1850,34.121196,-118.194086,No,1,Los Angeles CO Land Type 2011,1.96473E+13,K-5,K-5
290,1.96473E+13,Active,Yes,Traditional,Elementary,Public,Woodland Hills Elementary Charter For Enriched Studies,Los Angeles Unified,Los Angeles,22201 San Miguel Street,Woodland Hills,CA,91364-3039,34.159086,-118.610781,No,1,Los Angeles CO Land Type 2011,1.96473E+13,K-5,K-5
291,1.96473E+13,Active,No,Traditional,Elementary,Public,Angeles Mesa Elementary,Los Angeles Unified,Los Angeles,2611 West 52nd Street,Los Angeles,CA,90043-1917,33.996048,-118.321965,No,1,Los Angeles CO Land Type 2011,1.96473E+13,K-5,K-5
292,1.96473E+13,Active,No,Traditional,Elementary,Public,Leo Politi Elementary,Los Angeles Unified,Los Angeles,2481 West 11th Street,Los Angeles,CA,90006-2961,34.051494,-118.286437,No,1,Los Angeles CO Land Type 2011,1.96473E+13,K-5,K-5
293,1.96473E+13,Active,No,Traditional,Elementary,Public,Hoover Street Elementary,Los Angeles Unified,Los Angeles,2726 Francis Avenue,Los Angeles,CA,90005-1252,34.056374,-118.285495,No,1,Los Angeles CO Land Type 2011,1.96473E+13,K-5,K-5
294,1.96473E+13,Active,No,Traditional,Elementary,Public,Queen Anne Place Elementary,Los Angeles Unified,Los Angeles,1212 Queen Anne Place,Los Angeles,CA,90019-6819,34.051512,-118.330758,No,1,Los Angeles CO Land Type 2011,1.96473E+13,K-5,K-5
295,1.96473E+13,Active,No,Traditional,Elementary,Public,Los Angeles Elementary,Los Angeles Unified,Los Angeles,1211 South Hobart Boulevard,Los Angeles,CA,90006-3113,34.048133,-118.305738,No,1,Los Angeles CO Land Type 2011,1.96473E+13,K-5,K-5
296,1.96473E+13,Active,No,Traditional,Elementary,Public,Breed Street Elementary,Los Angeles Unified,Los Angeles,2226 East Third Street,Los Angeles,CA,90033-3906,34.042137,-118.213181,Yes,2,Los Angeles CO Land Type 2011,1.96473E+13,K-6,K-6
297,1.96473E+13,Active,No,Traditional,Elementary,Public,Euclid Avenue Elementary,Los Angeles Unified,Los Angeles,806 Euclid Avenue,Los Angeles,CA,90023-1549,34.031128,-118.206192,No,1,Los Angeles CO Land Type 2011,1.96473E+13,K-5,K-5
298,1.96473E+13,Active,No,Traditional,Elementary,Public,Stanford Avenue Elementary,Los Angeles Unified,Los Angeles,2833 Illinois Avenue,South Gate,CA,90280-4005,33.95128,-118.220943,No,1,Los Angeles CO Land Type 2011,1.96473E+13,5-Jan,5-Jan
299,1.96473E+13,Active,No,Traditional,Elementary,Public,State Street Elementary,Los Angeles Unified,Los Angeles,3211 Santa Ana Street,South Gate,CA,90280-2305,33.964392,-118.211655,No,1,Los Angeles CO Land Type 2011,1.96473E+13,K-5,K-5
300,1.96473E+13,Active,No,Traditional,High School,Public,Bell Senior High,Los Angeles Unified,Los Angeles,4328 Bell Avenue,Bell,CA,90201-2528,33.972827,-118.190208,No,1,Los Angeles CO Land Type 2011,1.96473E+13,12-Sep,12-Sep
301,1.96473E+13,Active,No,Traditional,Elementary,Public,Corona Avenue Elementary,Los Angeles Unified,Los Angeles,3825 Bell Avenue,Bell,CA,90201-2308,33.976537,-118.197405,No,1,Los Angeles CO Land Type 2011,1.96473E+13,5-Jan,5-Jan
302,1.96473E+13,Active,No,Traditional,Elementary,Public,Del Amo Elementary,Los Angeles Unified,Los Angeles,21228 Water Street,Carson,CA,90745-1849,33.836881,-118.240257,No,1,Los Angeles CO Land Type 2011,1.96473E+13,K-5,K-5
303,1.96473E+13,Active,No,Traditional,Elementary,Public,Nevin Avenue Elementary,Los Angeles Unified,Los Angeles,1569 East 32nd Street,Los Angeles,CA,90011-2213,34.012856,-118.246847,No,1,Los Angeles CO Land Type 2011,1.96473E+13,K-5,K-5
304,1.96473E+13,Active,No,Traditional,Elementary,Public,Hobart Boulevard Elementary,Los Angeles Unified,Los Angeles,980 South Hobart Boulevard,Los Angeles,CA,90006-1220,34.05368,-118.305234,Yes,2,Los Angeles CO Land Type 2011,1.96473E+13,K-5,K-5
305,1.96473E+13,Active,No,Traditional,Elementary,Public,San Gabriel Avenue Elementary,Los Angeles Unified,Los Angeles,8628 San Gabriel Avenue,South Gate,CA,90280-3112,33.955841,-118.201674,No,1,Los Angeles CO Land Type 2011,1.96473E+13,K-5,K-5
306,1.96473E+13,Active,No,Traditional,High School,Public,Thomas Jefferson Senior High,Los Angeles Unified,Los Angeles,1319 East 41st Street,Los Angeles,CA,90011-3301,34.011057,-118.250924,Yes,2,Los Angeles CO Land Type 2011,1.96473E+13,12-Sep,12-Sep
307,1.96473E+13,Active,No,Traditional,Elementary,Public,Bridge Street Elementary,Los Angeles Unified,Los Angeles,605 North Boyle Avenue,Los Angeles,CA,90033-1603,34.052801,-118.217088,No,1,Los Angeles CO Land Type 2011,1.96473E+13,K-5,K-5
308,1.96473E+13,Active,No,Traditional,Elementary,Public,Belvedere Elementary,Los Angeles Unified,Los Angeles,3724 East First Street,Los Angeles,CA,90063-2390,34.034891,-118.186367,No,1,Los Angeles CO Land Type 2011,1.96473E+13,K-5,K-5
309,1.96473E+13,Active,No,Traditional,Elementary,Public,Menlo Avenue Elementary,Los Angeles Unified,Los Angeles,4156 Menlo Avenue,Los Angeles,CA,90037-1933,34.007822,-118.28862,No,1,Los Angeles CO Land Type 2011,1.96473E+13,K-5,K-5
310,1.96473E+13,Active,No,Traditional,Elementary,Public,First Street Elementary,Los Angeles Unified,Los Angeles,2820 East First Street,Los Angeles,CA,90033-3636,34.040273,-118.204507,No,1,Los Angeles CO Land Type 2011,1.96473E+13,K-6,K-6
311,1.96473E+13,Active,Yes,Traditional,Elementary,Public,Marquez Charter,Los Angeles Unified,Los Angeles,16821 Marquez Avenue,Pacific Palisades,CA,90272-3243,34.04582,-118.548016,No,1,Los Angeles CO Land Type 2011,1.96473E+13,K-5,K-5
312,1.96473E+13,Active,No,Traditional,Intermediate/Middle/Junior High,Public,Andrew Carnegie Middle,Los Angeles Unified,Los Angeles,21820 Bonita Street,Carson,CA,90745-3404,33.829741,-118.258434,No,1,Los Angeles CO Land Type 2011,1.96473E+13,8-Jun,8-Jun
313,1.96473E+13,Active,No,Traditional,Elementary,Public,Christopher Dena Elementary,Los Angeles Unified,Los Angeles,1314 Dacotah Street,Los Angeles,CA,90023-2707,34.021844,-118.210541,No,1,Los Angeles CO Land Type 2011,1.96473E+13,K-6,K-6
314,1.96473E+13,Active,No,Traditional,Elementary,Public,Heliotrope Avenue Elementary,Los Angeles Unified,Los Angeles,5911 Woodlawn Avenue,Maywood,CA,90270-3525,33.985876,-118.177811,No,1,Los Angeles CO Land Type 2011,1.96473E+13,K-5,K-5
315,1.96473E+13,Active,No,Traditional,High School,Public,David Starr Jordan Senior High,Los Angeles Unified,Los Angeles,2265 East 103rd Street,Los Angeles,CA,90002-3132,33.944689,-118.230839,Yes,2,Los Angeles CO Land Type 2011,1.96473E+13,12-Sep,12-Sep
316,1.96473E+13,Active,No,Traditional,Elementary,Public,Tenth Street Elementary,Los Angeles Unified,Los Angeles,1000 Grattan Street,Los Angeles,CA,90015-2046,34.047666,-118.273604,No,1,Los Angeles CO Land Type 2011,1.96473E+13,5-Jan,5-Jan
317,1.96473E+13,Active,No,Traditional,Elementary,Public,Vermont Avenue Elementary,Los Angeles Unified,Los Angeles,1435 West 27th Street,Los Angeles,CA,90007-2137,34.03101,-118.292791,No,1,Los Angeles CO Land Type 2011,1.96473E+13,K-5,K-5
318,1.96473E+13,Active,Yes,Traditional,High School,Public,University High School Charter,Los Angeles Unified,Los Angeles,11800 Texas Avenue,Los Angeles,CA,90025-1402,34.04498,-118.459334,No,1,Los Angeles CO Land Type 2011,1.96473E+13,12-Sep,12-Sep
319,1.96473E+13,Active,No,Traditional,Elementary,Public,Fourth Street Elementary,Los Angeles Unified,Los Angeles,420 South Amalia Avenue,Los Angeles,CA,90022-2628,34.027959,-118.153329,No,1,Los Angeles CO Land Type 2011,1.96473E+13,5-Feb,5-Feb
320,1.96473E+13,Active,No,Traditional,Elementary,Public,Manchester Avenue Elementary,Los Angeles Unified,Los Angeles,661 West 87th Street,Los Angeles,CA,90044-5703,33.959344,-118.285803,No,1,Los Angeles CO Land Type 2011,1.96473E+13,6-Jan,6-Jan
321,1.96473E+13,Active,No,Traditional,Elementary,Public,Ninety-Fifth Street Elementary,Los Angeles Unified,Los Angeles,1109 West 96th Street,Los Angeles,CA,90044-3205,33.949166,-118.294363,No,1,Los Angeles CO Land Type 2011,1.96473E+13,K-5,K-5
322,1.96473E+13,Active,No,Traditional,Elementary,Public,San Pedro Street Elementary,Los Angeles Unified,Los Angeles,1635 South San Pedro Street,Los Angeles,CA,90015-3706,34.02899,-118.257737,No,1,Los Angeles CO Land Type 2011,1.96473E+13,K-5,K-5
323,1.96473E+13,Active,No,Traditional,High School,Public,Venice Senior High,Los Angeles Unified,Los Angeles,13000 Venice Boulevard,Los Angeles,CA,90066-3512,33.996953,-118.443449,Yes,2,Los Angeles CO Land Type 2011,1.96473E+13,12-Sep,12-Sep
324,1.96473E+13,Active,No,Traditional,Elementary,Public,Rowan Avenue Elementary,Los Angeles Unified,Los Angeles,600 South Rowan Avenue,Los Angeles,CA,90023-1826,34.028605,-118.186819,No,1,Los Angeles CO Land Type 2011,1.96473E+13,K-5,K-5
325,1.96473E+13,Active,No,Traditional,High School,Public,John C. Fremont Senior High,Los Angeles Unified,Los Angeles,7676 South San Pedro Street,Los Angeles,CA,90003-2348,33.969649,-118.267328,Yes,2,Los Angeles CO Land Type 2011,1.96473E+13,12-Sep,12-Sep
326,1.96473E+13,Active,No,Traditional,Elementary,Public,Purche Avenue Elementary,Los Angeles Unified,Los Angeles,13210 Purche Avenue,Gardena,CA,90249-1653,33.911652,-118.319597,No,1,Los Angeles CO Land Type 2011,1.96473E+13,K-5,K-5
327,1.96473E+13,Active,No,Traditional,Elementary,Public,West Vernon Avenue Elementary,Los Angeles Unified,Los Angeles,4312 South Grand Avenue,Los Angeles,CA,90037-2603,34.004708,-118.279708,No,1,Los Angeles CO Land Type 2011,1.96473E+13,K-5,K-5
328,1.96473E+13,Active,No,Traditional,Elementary,Public,Mar Vista Elementary,Los Angeles Unified,Los Angeles,3330 Granville Avenue,Los Angeles,CA,90066-2052,34.016374,-118.43422,No,1,Los Angeles CO Land Type 2011,1.96473E+13,K-5,K-5
329,1.96473E+13,Active,No,Traditional,Elementary,Public,Second Street Elementary,Los Angeles Unified,Los Angeles,1942 East Second Street,Los Angeles,CA,90033-3417,34.044895,-118.217346,No,1,Los Angeles CO Land Type 2011,1.96473E+13,K-6,K-6
330,1.96473E+13,Active,No,Traditional,Elementary,Public,One Hundred Sixteenth Street Elementary,Los Angeles Unified,Los Angeles,11610 Stanford Avenue,Los Angeles,CA,90059-2313,33.928728,-118.261212,No,1,Los Angeles CO Land Type 2011,1.96473E+13,K-5,K-5
331,1.96473E+13,Active,No,Traditional,Elementary,Public,Ambler Avenue Elementary,Los Angeles Unified,Los Angeles,319 East Sherman Drive,Carson,CA,90746-1158,33.878233,-118.270776,No,1,Los Angeles CO Land Type 2011,1.96473E+13,K-5,K-5
332,1.96473E+13,Active,No,Traditional,Elementary,Public,Taper Avenue Elementary,Los Angeles Unified,Los Angeles,1824 Taper Avenue,San Pedro,CA,90731-1175,33.76254,-118.298393,No,1,Los Angeles CO Land Type 2011,1.96473E+13,K-5,K-5
333,1.96473E+13,Active,No,Traditional,Elementary,Public,Baldwin Hills Elementary,Los Angeles Unified,Los Angeles,5421 Rodeo Road,Los Angeles,CA,90016-5122,34.022506,-118.365295,Yes,2,Los Angeles CO Land Type 2011,1.96473E+13,K-5,K-5
334,1.96473E+13,Active,No,Traditional,Elementary,Public,Union Avenue Elementary,Los Angeles Unified,Los Angeles,150 South Burlington Avenue,Los Angeles,CA,90057-2506,34.063308,-118.267032,No,1,Los Angeles CO Land Type 2011,1.96473E+13,K-5,K-5
335,1.96473E+13,Active,Yes,Traditional,High School,Public,Bright Star Secondary Charter Academy,Los Angeles Unified,Los Angeles,1600 W. Imperial Highway,Los Angeles,CA,90047-4810,33.928826,-118.305883,Yes,2,Los Angeles CO Parcels 2020,1.96473E+13,12-Sep,12-Sep
336,1.96473E+13,Active,No,Traditional,Elementary,Public,Evergreen Avenue Elementary,Los Angeles Unified,Los Angeles,2730 Ganahl Street,Los Angeles,CA,90033-2019,34.051872,-118.197202,No,1,Los Angeles CO Land Type 2011,1.96473E+13,K-6,K-6
337,1.96473E+13,Active,No,Traditional,Intermediate/Middle/Junior High,Public,George Washington Carver Middle,Los Angeles Unified,Los Angeles,4410 McKinley Avenue,Los Angeles,CA,90011-3614,34.002901,-118.259908,No,1,Los Angeles CO Land Type 2011,1.96473E+13,8-Jun,8-Jun
338,1.96473E+13,Active,No,Traditional,Elementary,Public,Humphreys Avenue Elementary,Los Angeles Unified,Los Angeles,500 South Humphreys Avenue,Los Angeles,CA,90022-2416,34.028905,-118.170348,No,1,Los Angeles CO Land Type 2011,1.96473E+13,K-5,K-5
339,1.96473E+13,Active,No,Traditional,Elementary,Public,Ann Street Elementary,Los Angeles Unified,Los Angeles,126 East Bloom Street,Los Angeles,CA,90012-1902,34.064543,-118.230584,No,1,Los Angeles CO Land Type 2011,1.96473E+13,K-5,K-5
340,1.96473E+13,Active,No,Traditional,Intermediate/Middle/Junior High,Public,Mary McLeod Bethune Middle,Los Angeles Unified,Los Angeles,155 West 69th Street,Los Angeles,CA,90003-1823,33.978193,-118.276095,No,1,Los Angeles CO Land Type 2011,1.96473E+13,8-Jul,8-Jul
341,1.96473E+13,Active,No,Traditional,High School,Public,Huntington Park Senior High,Los Angeles Unified,Los Angeles,6020 Miles Avenue,Huntington Park,CA,90255-3109,33.988076,-118.21724,No,1,Los Angeles CO Land Type 2011,1.96473E+13,12-Sep,12-Sep
342,1.96473E+13,Active,No,Traditional,Elementary,Public,Playa del Rey Elementary,Los Angeles Unified,Los Angeles,12221 Juniette Street,Culver City,CA,90230-6235,33.982874,-118.409744,No,1,Los Angeles CO Land Type 2011,1.96473E+13,K-5,K-5
343,1.96473E+13,Active,No,Traditional,Elementary,Public,Woodlawn Avenue Elementary,Los Angeles Unified,Los Angeles,6314 Woodlawn Avenue,Bell,CA,90201-1417,33.9778,-118.177242,No,1,Los Angeles CO Land Type 2011,1.96473E+13,K-5,K-5
344,1.96473E+13,Active,No,Traditional,Elementary,Public,Palms Elementary,Los Angeles Unified,Los Angeles,3520 Motor Avenue,Los Angeles,CA,90034-4807,34.026066,-118.40747,No,1,Los Angeles CO Land Type 2011,1.96473E+13,K-5,K-5
345,1.96473E+13,Active,Yes,Traditional,Elementary,Public,Canyon Charter Elementary,Los Angeles Unified,Los Angeles,421 Entrada Drive,Santa Monica,CA,90402-1303,34.032081,-118.511979,No,1,Los Angeles CO Land Type 2011,1.96473E+13,K-5,K-5
346,1.96473E+13,Active,No,Traditional,Elementary,Public,Walgrove Avenue Elementary,Los Angeles Unified,Los Angeles,1630 Walgrove Avenue,Los Angeles,CA,90066-2299,34.006231,-118.451463,No,1,Los Angeles CO Land Type 2011,1.96473E+13,K-5,K-5
347,1.96473E+13,Active,No,Traditional,Elementary,Public,White Point Elementary,Los Angeles Unified,Los Angeles,1410 Silvius Avenue,San Pedro,CA,90731-6099,33.716194,-118.307223,No,1,Los Angeles CO Land Type 2011,1.96473E+13,K-5,K-5
348,1.96473E+13,Active,No,Traditional,Intermediate/Middle/Junior High,Public,"Wilmington Middle Science, Technology, Engineering, Arts, Mathematics (STEAM) Magnet",Los Angeles Unified,Los Angeles,1700 Gulf Avenue,Wilmington,CA,90744-1311,33.797543,-118.272789,No,1,Los Angeles CO Land Type 2011,1.96473E+13,8-Jun,8-Jun
349,1.96473E+13,Active,No,Traditional,Intermediate/Middle/Junior High,Public,John Adams Middle,Los Angeles Unified,Los Angeles,151 West 30th Street,Los Angeles,CA,90007-3316,34.023172,-118.271857,No,1,Los Angeles CO Land Type 2011,1.96473E+13,8-Jun,8-Jun
350,1.96473E+13,Active,No,Traditional,High School,Public,WESM Health/Sports Medicine,Los Angeles Unified,Los Angeles,7400 West Manchester Avenue,Los Angeles,CA,90045-2322,33.957715,-118.428948,Yes,3,Los Angeles CO Land Type 2011,1.96473E+13,12-Sep,12-Sep
351,1.96473E+13,Active,No,Traditional,Elementary,Public,Forty-Ninth Street Elementary,Los Angeles Unified,Los Angeles,750 East 49th Street,Los Angeles,CA,90011-4014,33.998121,-118.262184,No,1,Los Angeles CO Land Type 2011,1.96473E+13,K-5,K-5
352,1.96473E+13,Active,No,Traditional,Elementary,Public,Harrison Street Elementary,Los Angeles Unified,Los Angeles,3529 City Terrace Drive,Los Angeles,CA,90063-3741,34.054227,-118.188889,No,1,Los Angeles CO Land Type 2011,1.96473E+13,K-6,K-6
353,1.96473E+13,Active,No,Traditional,Elementary,Public,Marvin Elementary,Los Angeles Unified,Los Angeles,2411 Marvin Avenue,Los Angeles,CA,90016-1910,34.035565,-118.364592,No,1,Los Angeles CO Land Type 2011,1.96473E+13,K-5,K-5
354,1.96473E+13,Active,No,Traditional,High School,Public,George Washington Preparatory High,Los Angeles Unified,Los Angeles,10860 South Denker Avenue,Los Angeles,CA,90047-4622,33.936826,-118.302516,Yes,3,Los Angeles CO Land Type 2011,1.96473E+13,12-Sep,12-Sep
355,1.96473E+13,Active,No,Traditional,Elementary,Public,Forty-Second Street Elementary,Los Angeles Unified,Los Angeles,4231 Fourth Avenue,Los Angeles,CA,90008-3903,34.006342,-118.322005,No,1,Los Angeles CO Land Type 2011,1.96473E+13,K-5,K-5
356,1.96473E+13,Active,No,Traditional,Elementary,Public,Wilton Place Elementary,Los Angeles Unified,Los Angeles,745 South Wilton Place,Los Angeles,CA,90005-3552,34.058521,-118.315324,No,1,Los Angeles CO Land Type 2011,1.96473E+13,K-5,K-5
357,1.96473E+13,Active,No,Traditional,Elementary,Public,Vernon City Elementary,Los Angeles Unified,Los Angeles,2360 East Vernon Avenue,Los Angeles,CA,90058-1609,34.00345,-118.230937,No,1,Los Angeles CO Land Type 2011,1.96473E+13,K-6,K-6
358,1.96473E+13,Active,No,Traditional,Elementary,Public,Twenty-Eighth Street Elementary,Los Angeles Unified,Los Angeles,2807 Stanford Avenue,Los Angeles,CA,90011-2017,34.019118,-118.261567,No,1,Los Angeles CO Land Type 2011,1.96473E+13,K-5,K-5
359,1.96473E+13,Active,No,Traditional,Elementary,Public,Wadsworth Avenue Elementary,Los Angeles Unified,Los Angeles,981 East 41st Street,Los Angeles,CA,90011-2753,34.010026,-118.258062,No,1,Los Angeles CO Land Type 2011,1.96473E+13,K-5,K-5
360,1.96473E+13,Active,No,Traditional,Elementary,Public,Twentieth Street Elementary,Los Angeles Unified,Los Angeles,1353 East 20th Street,Los Angeles,CA,90011-1226,34.022794,-118.250072,No,1,Los Angeles CO Land Type 2011,1.96473E+13,K-5,K-5
361,1.96473E+13,Active,No,Traditional,Elementary,Public,Robert F. Kennedy Elementary,Los Angeles Unified,Los Angeles,4010 East Ramboz Drive,Los Angeles,CA,90063-1218,34.053374,-118.177654,No,1,Los Angeles CO Land Type 2011,1.96473E+13,K-6,K-6
362,1.96473E+13,Active,Yes,Traditional,High School,Public,Palisades Charter High,Los Angeles Unified,Los Angeles,15777 Bowdoin Street,Pacific Palisades,CA,90272-3523,34.047986,-118.531284,No,1,Los Angeles CO Land Type 2011,1.96473E+13,12-Sep,12-Sep
363,1.96473E+13,Active,No,Traditional,Elementary,Public,Annalee Avenue Elementary,Los Angeles Unified,Los Angeles,19410 South Annalee Avenue,Carson,CA,90746-2687,33.854181,-118.251862,No,1,Los Angeles CO Land Type 2011,1.96473E+13,K-6,K-6
364,1.96473E+13,Active,No,Continuation School,High School,Public,Monterey Continuation,Los Angeles Unified,Los Angeles,466 South Fraser Street,Los Angeles,CA,90022-1929,34.02689,-118.157956,Yes,2,Los Angeles CO Land Type 2011,1.96473E+13,12-Sep,12-Sep
365,1.96473E+13,Active,No,Traditional,Elementary,Public,Miles Avenue Elementary,Los Angeles Unified,Los Angeles,6720 Miles Avenue,Huntington Park,CA,90255-5012,33.977765,-118.217683,No,1,Los Angeles CO Land Type 2011,1.96473E+13,K-5,K-5
366,1.96473E+13,Active,No,Traditional,Intermediate/Middle/Junior High,Public,Belvedere Middle,Los Angeles Unified,Los Angeles,312 North Record Avenue,Los Angeles,CA,90063-1824,34.039321,-118.181045,Yes,2,Los Angeles CO Land Type 2011,1.96473E+13,8-Jun,8-Jun
367,1.96473E+13,Active,No,Traditional,Elementary,Public,Halldale Elementary,Los Angeles Unified,Los Angeles,21514 Halldale Avenue,Torrance,CA,90501-3016,33.83333,-118.300573,No,1,Los Angeles CO Land Type 2011,1.96473E+13,K-5,K-5
368,1.96473E+13,Active,No,Traditional,Elementary,Public,Loma Vista Elementary,Los Angeles Unified,Los Angeles,3629 East 58th Street,Maywood,CA,90270-2616,33.99005,-118.199584,No,1,Los Angeles CO Land Type 2011,1.96473E+13,K-5,K-5
369,1.96473E+13,Active,No,Traditional,Elementary,Public,Twenty-Fourth Street Elementary,Los Angeles Unified,Los Angeles,2055 West 24th Street,Los Angeles,CA,90018-1925,34.035675,-118.311581,Yes,3,Los Angeles CO Land Type 2011,1.96473E+13,K-4,K-4
370,1.96473E+13,Active,No,Traditional,Elementary,Public,Woodcrest Elementary,Los Angeles Unified,Los Angeles,1151 West 109th Street,Los Angeles,CA,90044-3011,33.937796,-118.294964,No,1,Los Angeles CO Land Type 2011,1.96473E+13,K-5,K-5
371,1.96473E+13,Active,No,Traditional,Elementary,Public,Trinity Street Elementary,Los Angeles Unified,Los Angeles,3736 Trinity Street,Los Angeles,CA,90011-2635,34.012315,-118.268931,Yes,2,Los Angeles CO Land Type 2011,1.96473E+13,5-Feb,5-Feb
372,1.96473E+13,Active,No,Traditional,Intermediate/Middle/Junior High,Public,Robert E. Peary Middle,Los Angeles Unified,Los Angeles,1415 West Gardena Boulevard,Gardena,CA,90247-4712,33.882859,-118.301448,No,1,Los Angeles CO Land Type 2011,1.96473E+13,8-Jun,8-Jun
373,1.96473E+13,Active,No,Traditional,Elementary,Public,One Hundred Thirty-Fifth Street Elementary,Los Angeles Unified,Los Angeles,801 West 135th Street,Gardena,CA,90247-2154,33.909713,-118.290015,No,1,Los Angeles CO Land Type 2011,1.96473E+13,K-5,K-5
374,1.96473E+13,Active,No,Traditional,Elementary,Public,McKinley Avenue Elementary,Los Angeles Unified,Los Angeles,7812 McKinley Avenue,Los Angeles,CA,90001-2829,33.96796,-118.259675,No,1,Los Angeles CO Land Type 2011,1.96473E+13,K-6,K-6
375,1.96473E+13,Active,No,Traditional,Elementary,Public,Westport Heights Elementary,Los Angeles Unified,Los Angeles,6011 West 79th Street,Los Angeles,CA,90045-2946,33.967029,-118.388425,No,1,Los Angeles CO Land Type 2011,1.96473E+13,K-5,K-5
376,1.96473E+13,Active,No,Traditional,Elementary,Public,Murchison Street Elementary,Los Angeles Unified,Los Angeles,1501 Murchison Street,Los Angeles,CA,90033-1526,34.06013,-118.196021,No,1,Los Angeles CO Land Type 2011,1.96473E+13,K-6,K-6
377,1.96473E+13,Active,No,Traditional,Elementary,Public,One Hundred Twelfth Street Elementary,Los Angeles Unified,Los Angeles,1265 East 112th Street,Los Angeles,CA,90059-1137,33.933722,-118.252743,Yes,2,Los Angeles CO Land Type 2011,1.96473E+13,K-5,K-5
378,1.96473E+13,Active,Yes,Traditional,Elementary,Public,Westwood Charter Elementary,Los Angeles Unified,Los Angeles,2050 Selby Avenue,Los Angeles,CA,90025-6311,34.047836,-118.430409,No,1,Los Angeles CO Land Type 2011,1.96473E+13,K-5,K-5
379,1.96473E+13,Active,No,Traditional,Elementary,Public,Castelar Street Elementary,Los Angeles Unified,Los Angeles,840 Yale Street,Los Angeles,CA,90012-2328,34.064108,-118.239615,No,1,Los Angeles CO Land Type 2011,1.96473E+13,K-7,K-6
380,1.96473E+13,Active,No,Traditional,Elementary,Public,Castle Heights Elementary,Los Angeles Unified,Los Angeles,9755 Cattaraugus Avenue,Los Angeles,CA,90034-2352,34.038347,-118.398241,No,1,Los Angeles CO Land Type 2011,1.96473E+13,K-5,K-5
381,1.96473E+13,Active,No,Traditional,Elementary,Public,South Park Elementary,Los Angeles Unified,Los Angeles,8510 Towne Avenue,Los Angeles,CA,90003-3119,33.960869,-118.266234,No,1,Los Angeles CO Land Type 2011,1.96473E+13,K-6,K-6
382,1.96473E+13,Active,No,Traditional,Elementary,Public,Ford Boulevard Elementary,Los Angeles Unified,Los Angeles,1112 South Ford Boulevard,Los Angeles,CA,90022-2912,34.020241,-118.17142,No,1,Los Angeles CO Land Type 2011,1.96473E+13,K-5,K-5
383,1.96473E+13,Active,No,Traditional,High School,Public,Gardena Senior High,Los Angeles Unified,Los Angeles,1301 West 182nd Street,Gardena,CA,90248-3322,33.868429,-118.296786,Yes,3,Los Angeles CO Land Type 2011,1.96473E+13,12-Sep,12-Sep
384,1.96473E+13,Active,No,Traditional,Intermediate/Middle/Junior High,Public,Mark Twain Middle,Los Angeles Unified,Los Angeles,2224 Walgrove Avenue,Los Angeles,CA,90066-3502,34.001115,-118.445798,Yes,2,Los Angeles CO Land Type 2011,1.96473E+13,8-Jun,8-Jun
385,1.96473E+13,Active,No,Traditional,Elementary,Public,Stoner Avenue Elementary,Los Angeles Unified,Los Angeles,11735 Braddock Drive,Culver City,CA,90230-5141,33.995537,-118.413365,Yes,2,Los Angeles CO Land Type 2011,1.96473E+13,K-5,K-5
386,1.96473E+13,Active,No,Traditional,Elementary,Public,Montara Avenue Elementary,Los Angeles Unified,Los Angeles,10018 Montara Avenue,South Gate,CA,90280-5605,33.944489,-118.217866,No,1,Los Angeles CO Land Type 2011,1.96473E+13,K-6,K-6
387,1.96473E+13,Active,Yes,Traditional,Intermediate/Middle/Junior High,Public,Emerson Community Charter,Los Angeles Unified,Los Angeles,1650 Selby Avenue,Los Angeles,CA,90024-5716,34.05403,-118.43569,No,1,Los Angeles CO Land Type 2011,1.96473E+13,8-Jun,8-Jun
388,1.96473E+13,Active,No,Traditional,Elementary,Public,Canfield Avenue Elementary,Los Angeles Unified,Los Angeles,9233 Airdrome Street,Los Angeles,CA,90035-3201,34.050598,-118.390278,No,1,Los Angeles CO Land Type 2011,1.96473E+13,K-5,K-5
389,1.96473E+13,Active,No,Traditional,High School,Public,"Crenshaw Science, Technology, Engineering, Math and Medicine Magnet",Los Angeles Unified,Los Angeles,5010 11th Avenue,Los Angeles,CA,90043-4816,33.996577,-118.327591,Yes,3,Los Angeles CO Land Type 2011,1.96473E+13,12-Sep,12-Sep
390,1.96473E+13,Active,No,Traditional,Elementary,Public,Sunrise Elementary,Los Angeles Unified,Los Angeles,2821 East Seventh Street,Los Angeles,CA,90023-1501,34.02989,-118.20947,No,1,Los Angeles CO Land Type 2011,1.96473E+13,K-6,K-6
391,1.96473E+13,Active,No,Traditional,Elementary,Public,Seventh Street Elementary,Los Angeles Unified,Los Angeles,1570 West Seventh Street,San Pedro,CA,90732-3420,33.738628,-118.31081,No,1,Los Angeles CO Land Type 2011,1.96473E+13,K-5,K-5
392,1.96473E+13,Active,No,Traditional,High School,Public,Susan Miller Dorsey Senior High,Los Angeles Unified,Los Angeles,3537 Farmdale Avenue,Los Angeles,CA,90016-4707,34.022843,-118.347786,Yes,2,Los Angeles CO Land Type 2011,1.96473E+13,12-Sep,12-Sep
393,1.96473E+13,Active,No,Traditional,Elementary,Public,Carthay Elementary Of Environmental Studies Magnet,Los Angeles Unified,Los Angeles,6351 West Olympic Boulevard,Los Angeles,CA,90048-5411,34.059566,-118.369058,No,1,Los Angeles CO Land Type 2011,1.96473E+13,K-5,K-5
394,1.96473E+13,Active,No,Traditional,Elementary,Public,Hillcrest Drive Elementary,Los Angeles Unified,Los Angeles,4041 Hillcrest Drive,Los Angeles,CA,90008-2902,34.014012,-118.348189,No,1,Los Angeles CO Land Type 2011,1.96473E+13,K-5,K-5
395,1.96473E+13,Active,No,Traditional,Elementary,Public,Charnock Road Elementary,Los Angeles Unified,Los Angeles,11133 Charnock Road,Los Angeles,CA,90034-6506,34.017794,-118.420218,No,1,Los Angeles CO Land Type 2011,1.96473E+13,K-5,K-5
396,1.96473E+13,Active,No,Traditional,Elementary,Public,Broad Avenue Elementary,Los Angeles Unified,Los Angeles,24815 Broad Avenue,Wilmington,CA,90744-1036,33.801478,-118.262795,No,1,Los Angeles CO Land Type 2011,1.96473E+13,K-5,K-5
397,1.96473E+13,Active,No,Traditional,Elementary,Public,Gardena Elementary,Los Angeles Unified,Los Angeles,647 West Gardena Boulevard,Gardena,CA,90247-5021,33.882335,-118.286584,No,1,Los Angeles CO Land Type 2011,1.96473E+13,K-5,K-5
398,1.96473E+13,Active,No,Traditional,Elementary,Public,Ritter Elementary,Los Angeles Unified,Los Angeles,11108 Watts Avenue,Los Angeles,CA,90059-1444,33.933843,-118.227077,No,1,Los Angeles CO Land Type 2011,1.96473E+13,K-5,K-5
399,1.96473E+13,Active,No,Traditional,Elementary,Public,Martin Luther King Jr. Elementary,Los Angeles Unified,Los Angeles,3989 South Hobart Boulevard,Los Angeles,CA,90062-1124,34.01193,-118.308333,No,1,Los Angeles CO Land Type 2011,1.96473E+13,K-5,K-5
400,1.96473E+13,Active,No,Traditional,Elementary,Public,Catskill Avenue Elementary,Los Angeles Unified,Los Angeles,23536 Catskill Avenue,Carson,CA,90745-5412,33.81183,-118.270319,Yes,2,Los Angeles CO Land Type 2011,1.96473E+13,K-5,K-5
401,1.96473E+13,Active,No,Traditional,Elementary,Public,One Hundred Fifty-Third Street,Los Angeles Unified,Los Angeles,1605 West 153rd Street,Gardena,CA,90247-3135,33.893538,-118.305871,No,1,Los Angeles CO Land Type 2011,1.96473E+13,K-5,K-6
402,1.96473E+13,Active,No,Traditional,Elementary,Public,Wilshire Crest Elementary,Los Angeles Unified,Los Angeles,5241 West Olympic Boulevard,Los Angeles,CA,90036-4902,34.057988,-118.343595,No,1,Los Angeles CO Land Type 2011,1.96473E+13,K-5,K-5
403,1.96473E+13,Active,No,Traditional,Elementary,Public,Main Street Elementary,Los Angeles Unified,Los Angeles,129 East 53rd Street,Los Angeles,CA,90011-4517,33.994751,-118.27261,No,1,Los Angeles CO Land Type 2011,1.96473E+13,K-5,K-5
404,1.96473E+13,Active,No,Traditional,Elementary,Public,Alta Loma Elementary,Los Angeles Unified,Los Angeles,1745 Vineyard Avenue,Los Angeles,CA,90019-5753,34.043014,-118.339686,No,1,Los Angeles CO Land Type 2011,1.96473E+13,K-5,K-5
405,1.96473E+13,Active,No,Traditional,Intermediate/Middle/Junior High,Public,John Burroughs Middle,Los Angeles Unified,Los Angeles,600 South McCadden Place,Los Angeles,CA,90005-3829,34.063542,-118.336254,No,1,Los Angeles CO Land Type 2011,1.96473E+13,8-Jun,8-Jun
406,1.96473E+13,Active,No,Traditional,Intermediate/Middle/Junior High,Public,Thomas A. Edison Middle,Los Angeles Unified,Los Angeles,6500 Hooper Avenue,Los Angeles,CA,90001-1264,33.980419,-118.250974,No,1,Los Angeles CO Land Type 2011,1.96473E+13,8-Jun,8-Jun
407,1.96473E+13,Active,No,Traditional,Elementary,Public,One Hundred Ninth Street Elementary,Los Angeles Unified,Los Angeles,10915 South McKinley Avenue,Los Angeles,CA,90059-1523,33.936857,-118.26189,No,1,Los Angeles CO Land Type 2011,1.96473E+13,K-5,K-5
408,1.96473E+13,Active,No,Traditional,Elementary,Public,Ninety-Second Street Elementary,Los Angeles Unified,Los Angeles,9211 Grape Street,Los Angeles,CA,90002-2528,33.951885,-118.236849,No,1,Los Angeles CO Land Type 2011,1.96473E+13,K-6,K-6
409,1.96473E+13,Active,No,Traditional,Elementary,Public,Leapwood Avenue Elementary,Los Angeles Unified,Los Angeles,19302 Leapwood Avenue,Carson,CA,90746-1954,33.855811,-118.260913,No,1,Los Angeles CO Land Type 2011,1.96473E+13,K-5,K-5
410,1.96473E+13,Active,No,Traditional,Elementary - Intermediate/Middle/Junior High Combination,Public,Utah Street Elementary,Los Angeles Unified,Los Angeles,255 Gabriel Garcia Marquez Street,Los Angeles,CA,90033-2746,34.048885,-118.224724,No,1,Los Angeles CO Land Type 2011,1.96473E+13,K-8,K-8
411,1.96473E+13,Active,No,Traditional,Elementary,Public,One Hundred Eighty-Sixth Street Elementary,Los Angeles Unified,Los Angeles,1581 West 186th Street,Gardena,CA,90248-3951,33.862902,-118.305874,No,1,Los Angeles CO Land Type 2011,1.96473E+13,K-5,K-5
412,1.96473E+13,Active,No,Traditional,Elementary,Public,Herrick Avenue Elementary,Los Angeles Unified,Los Angeles,13350 Herrick Avenue,Sylmar,CA,91342-7601,34.315059,-118.464195,No,1,Los Angeles CO Land Type 2011,1.96473E+13,K-5,K-5
413,1.96473E+13,Active,No,Traditional,Elementary,Public,Gridley Street Elementary,Los Angeles Unified,Los Angeles,1907 Eighth Street,San Fernando,CA,91340-1009,34.302748,-118.429023,No,1,Los Angeles CO Land Type 2011,1.96473E+13,K-5,K-5
414,1.96473E+13,Active,No,Traditional,Elementary,Public,Hillery T. Broadous Elementary,Los Angeles Unified,Los Angeles,12561 Filmore Street,Pacoima,CA,91331-1255,34.282926,-118.409027,No,1,Los Angeles CO Land Type 2011,1.96473E+13,K-5,K-5
415,1.96473E+13,Active,No,Traditional,Elementary,Public,Dyer Street Elementary,Los Angeles Unified,Los Angeles,14500 Dyer Street,Sylmar,CA,91342-5114,34.299498,-118.447288,No,1,Los Angeles CO Land Type 2011,1.96473E+13,K-5,K-5
